"insee_dep","lib_france_services","adresse","adresse_cplmt","insee_com","code_postal","lib_com","type_structure","lib_structure","h_lundi","h_mardi","h_mercredi","h_jeudi","h_vendredi","h_samedi","itinerance","lat","long","result_label","result_score","result_postcode","result_city","result_citycode"
"01","Valserhône ","9 Rue des Papetiers ",,,"01200","VALSERHÔNE",,,,,,,,,,"46.105747","5.825644","9 Rue des Papetiers 01200 Valserhône","0.95","01200","Valserhône","01033"
"01","Saint-Trivier-de-Courtes","22 ESPLANADE DE LA POSTE",,,"01560","Saint-Trivier-de-Courtes","La Poste",,,,,,,,,"46.45916","5.083785","22 Esplanade de la Poste 01560 Saint-Trivier-de-Courtes","0.94","01560","Saint-Trivier-de-Courtes","01388"
"02","Maison France Services Thiérache Sambre et Oise","6 rue André Godin",,,"02120","GUISE","Collectivité","Communauté de communes  Thiérache Sambre et Oise","9h30 – 12h15 / 13h45 – 16h30","9h30 – 12h15 / 13h45 – 16h30",,"9h30 – 12h15 / 13h45 – 16h30","9h30 – 12h15 / 13h45 – 16h30",,"Oui","49.901471","3.626688","6 Rue André Godin 02120 Guise","0.95","02120","Guise","02361"
"02","Maison France Services de Ribemont","12 place du Château",,,"02240","RIBEMONT","Collectivité","Communauté de communes du Val de l’Oise","8h30 – 12h / 13h30 – 17h","8h30 – 12h / 13h30 – 17h","8h – 12h30","8h30 – 12h / 13h30 – 17h","8h30 – 12h / 13h30 – 17h",,,"49.797043","3.457978","12 Place du Château 02240 Ribemont","0.94","02240","Ribemont","02648"
"02","Espace France Services de Vailly-sur-Aisne","10 bis place Edouard Hériot",,,"02370","VAILLY-SUR-AISNE","Collectivité","Commune de Vailly-sur-Aisne","9h - 12h / 14h00 – 17h00","9h - 12h / 14h00 – 17h00","9h - 12h / 14h00 – 17h00","9h - 12h / 14h00 – 17h00","9h - 12h / 14h00 – 17h00",,,"49.4108","3.516475","10 bis Place Edouard Herriot 02370 Vailly-sur-Aisne","0.92","02370","Vailly-sur-Aisne","02758"
"02","Espace France Services de Saint-Erme","2 bis route de Montaigu",,,"02820","SAINT-ERME","Collectivité","Communauté de communes de la Champagne Picarde","9h - 12h / 13h15 – 17h30","9h - 12h / 13h15 – 17h30","9h - 12h / 13h15 – 17h30","9h - 12h / 13h15 – 17h30","9h - 12h / 13h15 – 17h",,,"49.535162","3.832202","Rue de Saint-erme 02820 Montaigu","0.63","02820","Montaigu","02498"
"03","Bus numérique du Conseil départemental de l’Allier","1 Avenue Victor Hugo",,,"03000","MOULINS","Collectivité","Conseil départemental de l’Allier",,,,,,,"Oui","46.568527","3.333844","1 Avenue Victor Hugo 03000 Moulins","0.95","03000","Moulins","03190"
"03","Espace France Services Le Montet","1 Place du Huit Mai",,,"03240","LE MONTET","Collectivité","Communauté de communes du bocage bourbonnais","9h - 12h / 14h – 18h","9h - 12h / 14h – 18h","9h - 12h / 14h – 18h","9h - 12h / 14h – 18h","9h – 12h","9h – 12h le premier samedi de chaque mois",,"46.409034","3.056601","1 Place du Huit Mai 03240 Le Montet","0.94","03240","Le Montet","03183"
"03","Espace France Services Dompierre sur Besbre","Place des Trois Platanes","Espace Boudeville",,"03290","DOMPIERRE-SUR-BESBRE","Collectivité","Communauté de communes entr’allier besbre et loire","9h - 12h / 13h30 – 17h","9h - 12h / 13h30 – 17h","9h - 12h / 13h30 – 17h","9h - 12h / 13h30 – 17h","9h – 12h",,,"46.518318","3.684063","Place des 3 Platanes 03290 Dompierre-sur-Besbre","0.61","03290","Dompierre-sur-Besbre","03102"
"03","Espace France Services Huriel","6 rue des Calaubys",,,"03380","HURIEL","Collectivité","Communauté de communes du pays d’Huriel","9h - 12h / 13h30 – 17h30","8h30 - 12h / 14h – 17h","8h30 - 12h / 13h30 – 17h","8h - 12h / 14h – 17h","9h - 12h / 13h30 – 17h30",,,"46.373106","2.475106","6 Rue des Calaubys 03380 Huriel","0.94","03380","Huriel","03128"
"03","Espace France Services Montmarault","7 Rue de la République",,,"03390","MONTMARAULT","Association","Association développement économique bassin emploi (ADEM)","8h30 - 12h30 / 13h30 – 17h15","8h30 - 12h30 / 13h30 – 17h15","8h30 - 12h30 / 13h30 – 17h15","8h30 - 12h30 / 13h30 – 17h15","8h30 – 12h30",,,"46.318921","2.953847","7 Rue de la République 03390 Montmarault","0.94","03390","Montmarault","03186"
"03","Espace France Services Marcillat en Combrailles","Place Pierre-Bitard",,,"03420","MARCILLAT-EN-COMBRAILLE","Collectivité","Commune de Marcillat en combrailles",,"8h30 - 12h / 13h30 – 17h30","8h30 - 12h / 13h30 – 17h30","8h30 - 12h / 13h30 – 17h30","8h30 - 12h / 13h30 – 17h30","8h30 - 12h / 13h30 – 17h30",,"46.167008","2.631081","Place Pierre Bitard 03420 Marcillat-en-Combraille","0.94","03420","Marcillat-en-Combraille","03161"
"03","Espace France Services Ebreuil","21 allée du Chemin-de-Fer","Communauté de communes Saint-Pourçain Sioule Limagne",,"03450","ÉBREUIL","Collectivité","communauté de communes Saint-pourçain sioule limagne","9h - 12h / 13h30 – 17h","9h - 12h / 13h30 – 17h","9h - 12h / 13h30 – 17h","9h - 12h / 13h30 – 17h","9h – 12h",,,"46.284913","3.262338","Rue du Chemin Ferre 03500 Saint-Pourçain-sur-Sioule","0.42","03500","Saint-Pourçain-sur-Sioule","03254"
"04","France Services BANON","PLACE DE LA REPUBLIQUE",,,"04150 ","BANON","La Poste",,,,,,,,,"44.038745","5.628631","Place de la Republique 04150 Banon","0.94","04150","Banon","04018"
"06","Espace France Services de Puget-Théniers","1 avenue Miss Pell","Foyer rural Cepage",,"06260","PUGET-THÉNIERS","Association","Foyer rural Cepage","9h30 – 12h30 / 13h30 – 17h30","9h30 – 12h30 / 13h30 – 17h30","9h30 – 12h30 / 13h30 – 17h30","9h30 – 12h30 / 13h30 – 17h30","9h30 – 12h30 / 13h30 – 17h30",,,"43.956124","6.893081","1 Avenue Miss Pell 06260 Puget-Théniers","0.64","06260","Puget-Théniers","06099"
"06","Espace France Services de Tende","107 AVENUE DU 16 SEPTEMBRE 1947",,,"06430","TENDE","La Poste","La Poste","8h45 – 12h00 / 13h30 – 16h00","08h45 – 12h00","8h45 – 12h00 / 13h30 – 16h00","8h45 – 12h00 / 13h30 – 16h00","9h30 – 12h00 / 13h30 – 16h00","8h45 – 12h00",,"44.089739","7.592867","107 Avenue du 16 Septembre 1947 06430 Tende","0.94","06430","Tende","06163"
"06","Espace France Services de Roquebillière","30 avenue Corniglion Molinier","Maison du département",,"06450","ROQUEBILLIÈRE","Collectivité","Conseil Départemental des Alpes-Maritimes","8h30 – 17h30","8h30 – 17h30","8h30 – 17h30","8h30 – 17h30","8h30 – 17h30","9h – 12h",,"44.012349","7.308089","Place Gen Corniglion Molinier 06450 Roquebillière","0.53","06450","Roquebillière","06103"
"06","Espace France Services de Saint-Vallier de Thiey","101 allée Charles Bonome",,,"06460","SAINT-VALLIER DE THIEY","Collectivité","Conseil Départemental des Alpes-Maritimes","9h -18h","9h -18h","9h -18h","9h -18h","9h -18h","9h – 12h",,"43.700356","6.848674","101 Allée Charles Bonome 06460 Saint-Vallier-de-Thiey","0.94","06460","Saint-Vallier-de-Thiey","06130"
"06","Espace France Services de l’Epi","25 place de provence","Centre socioculturel",,"06470","GUILLAUMES","Association","UFCV","9h00 – 12h30 / 14h – 17h30","9h00 – 12h30 / 14h – 17h30","9h00 – 12h30 / 14h – 17h30","9h00 – 12h30 / 14h – 17h30","9h00 – 12h30 / 14h – 17h30",,,"44.089024","6.852917","Place de Provence 06470 Guillaumes","0.55","06470","Guillaumes","06071"
"06","Espace France Services de St Etienne de Tinée","10 rue des communes de France",,,"06660","ST ETIENNE DE TINEE","La Poste","La Poste","8h45 -12h00 / 14h00 – 16h00","8h45 -12h00 / 14h00 – 16h00","8h45 – 12h00","8h45 -12h00 / 14h00 – 16h00","8h45 -12h00 / 14h00 – 16h00","8h45 – 12h00",,"44.254953","6.925067","10 Rue des Communes de France 06660 Saint-Étienne-de-Tinée","0.86","06660","Saint-Étienne-de-Tinée","06120"
"06","Espace France Services de Colomars","1 place de la Madonne",,,"06670","COLOMARS","Collectivité","SIVOM Val de la Banquière",,"8h30 – 12h30 / 13h30 – 16h30","9h00 – 12h30","8h30 – 12h30 / 13h30 – 16h30","8h30 – 12h30 / 13h30 – 16h30","9h00 – 12h30",,"43.758975","7.219086","1 Place de la Madone 06670 Colomars","0.92","06670","Colomars","06046"
"06","Espace France Services du Plan du Var","368 avenue Porte des Alpes",,,"06670","LEVENS","Collectivité","Conseil Départemental des Alpes-Maritimes","8h30 – 17h30","8h30 – 17h30","8h30 – 17h30","8h30 – 17h30","8h30 – 17h30",,,"43.856406","7.196771","368 Avenue Porte des Alpes 06670 Levens","0.95","06670","Levens","06075"
"06","Espace France Services de Saint-André de la Roche","2 rue du Ghet","Résidence La Laupia",,"06730","SAINT ANDRÉ DE LA NOCHE","Collectivité","Conseil Départemental des Alpes-Maritimes","8h30 – 17h30","8h30 – 17h30","8h30 – 17h30","8h30 – 17h30","8h30 – 17h30",,,"43.738855","7.288461","2 Rue du Ghet 06730 Saint-André-de-la-Roche","0.63","06730","Saint-André-de-la-Roche","06114"
"06","Espace France Services de Saint-André de la Roche","2 rue du Ghet","Résidence La Laupia",,"06731","SAINT ANDRÉ DE LA NOCHE","Collectivité","Conseil Départemental des Alpes-Maritimes","8h30 – 17h30","8h30 – 17h30","8h30 – 17h30","8h30 – 17h30","8h30 – 17h30",,,"43.738855","7.288461","2 Rue du Ghet 06730 Saint-André-de-la-Roche","0.58","06730","Saint-André-de-la-Roche","06114"
"06","Espace France Services de Saint-André de la Roche","2 rue du Ghet","Résidence La Laupia",,"06732","SAINT ANDRÉ DE LA NOCHE","Collectivité","Conseil Départemental des Alpes-Maritimes","8h30 – 17h30","8h30 – 17h30","8h30 – 17h30","8h30 – 17h30","8h30 – 17h30",,,"43.738855","7.288461","2 Rue du Ghet 06730 Saint-André-de-la-Roche","0.58","06730","Saint-André-de-la-Roche","06114"
"06","Espace France Services Les Monts d’Azur","344 avenue des Hôtels",,,"06850","SAINT AUBAN","Collectivité","Communauté d’agglomération du pays de Grasse","8h15 – 17h","8h15 – 17h","8h15 – 17h","8h15 – 17h","8h15 – 17h",,,"43.84683","6.728909","344 Avenue des Hotels 06850 Saint-Auban","0.93","06850","Saint-Auban","06116"
"07","Espace France Services de Vernoux en Vivarais","25, avenue Vincent d'Indy",,,"07240","VERNOUX EN VIVARAIS","Collectivité","CA Privas Centre Ardèche","13h30-17h","9h-12h30/13h30/17h","9h-12h31","9h-12h30/13h30-17h","13h30-17h",,,"44.896924","4.646223","25 Avenue Vincent d'Indy 07240 Vernoux-en-Vivarais","0.94","07240","Vernoux-en-Vivarais","07338"
"07","Espace France Services de Saint Agrève","4, place de Verdun","Centre socio culturel",,"07320","SAINT AGRÈVE","Collectivité","Mairie de St Agrève","8h30-12h/13h30-16h30","8h30-12h30/13h30-18h","8h30-12h ","8h30-12h30/13h30-18h","8h30-12h/13h-16h30",,,"45.010011","4.394552","4 Place de Verdun 07320 Saint-Agrève","0.59","07320","Saint-Agrève","07204"
"07","Espace France Services de Thueyts","11, rue Pouget",,,"07330","THUEYTS","Collectivité","CC de l'Ardèche des Sources et des Volcans","8h30 - 12h/13h-16h30","8h30-12h/13h-16h30","8h30-12h/13h16h30","8h30-12h/13h-16h30","8h30-12h/13h-16h30",,,"44.675733","4.222033","11 Rue du Pouget 07330 Thueyts","0.85","07330","Thueyts","07322"
"07","Espace France Services de St Marcel d'Ardèche","Place du portail du Rhône",,,"07700","SAINT MARCEL D'ARDÈCHE","Collectivité","CC du Rhône aux Gorges de l'Ardèche","9h-12h/14h-17h","9h-12h/14h-17h","9h-12h","9h-12h/14h-17h","9h-12h/14h-17h",,,"44.326469","4.61922","Place du Portail du Rhone 07700 Saint-Marcel-d'Ardèche","0.94","07700","Saint-Marcel-d'Ardèche","07264"
"08","Bogny-sur-Meuse","34 rue Maurice Louis","Espace Léon Bousquet",,"08120","BOGNY-SUR-MEUSE","Opérateur","Centre socio-culturel Aymon Lire","14h-17h","9h - 12h / 14h – 16h",,"14h-17h","14h-17h",,"Oui",,,,,,,
"08","Attigny","17 place Charlemagne",,,"08130","ATTIGNY","La Poste",,"9h12h/13h-15h","9h12h/13h-15h","9h12h/13h-15h","9h12h/13h-15h","9h12h/13h-15h","9h-12h",,"49.478115","4.578587","17 Place Charlemagne 08130 Attigny","0.94","08130","Attigny","08025"
"08","Vouziers","2 rue de l’agriculture",,,"08400","VOUZIERS",,,,,,,,,,"49.399698","4.697412","2 Rue de l'Agriculture 08400 Vouziers","0.95","08400","Vouziers","08490"
"08","Poix-Terron","1 place de la Halle",,,"08430","POIX-TERRON","La Poste",,"9h-12h/14h-17h","9h-12h/14h-17h","9h-12h","9h-12h/14h-17h","9h-12h/14h-17h","9h-11h30",,"49.648873","4.642524","1 Place de la Halle 08430 Poix-Terron","0.94","08430","Poix-Terron","08341"
"08","Signy-l’Abbaye","27 rue de Thin",,,"08460","SIGNY-L’ABBAYE","Collectivité","Communautés de communes les crêtes préardennaises","13h30-18h","9h-12h/13h30-18h30","9h-12h/13h30-18h","9h-12h/13h30-18h30","9h-12h/13h30-18h","10h-12h",,"49.698416","4.421826","27 Rue de Thin 08460 Signy-l'Abbaye","0.94","08460","Signy-l'Abbaye","08419"
"08","Revin","Chemin du Vieux Chêne",,,"08500","REVIN","Opérateur","Centre social Orzy","9h12h/14h-17h","9h12h/14h-17h","9h12h/14h-17h","9h12h/14h-17h","9h12h/14h-17h",,,"49.927058","4.646716","Chemin du Vieux Chêne 08500 Revin","0.95","08500","Revin","08363"
"09","Ax les Thermes","PLACE ROUSSEL",,,"09110","AX LES THERMES","La Poste",,,,,,,,,"42.719819","1.8376","Place Roussel 09110 Ax-les-Thermes","0.94","09110","Ax-les-Thermes","09032"
"09","Saint-Girons","Rue Joseph Sentenac",,,"09200","SAINT-GIRONS",,,,,,,,,,"42.983461","1.146293","Rue Joseph Sentenac 09200 Saint-Girons","0.95","09200","Saint-Girons","09261"
"09","Tarascon sur Ariège","Rue Jean Moulin",,,"09400","TARASCON SUR ARIÈGE",,,,,,,,,,"42.850315","1.605623","Rue Jean Moulin 09400 Tarascon-sur-Ariège","0.94","09400","Tarascon-sur-Ariège","09306"
"09","Mirepoix","1 b Chemin de la Mestrise",,,"09500","MIREPOIX",,,,,,,,,,"43.087446","1.872035","1 b Chemin de la Mestrise 09500 Mirepoix","0.94","09500","Mirepoix","09194"
"10","Espace France Services - Saint Lyé","1 rue Henri Rodin 10 180 Saint-Lyé",,,"10180","SAINT-LYE","Collectivité","Troyes Champagne Métropole","Fermé","9h - 13h / 15h30 - 18h30","Fermé","9h - 13h / 15h30 - 18h30","Fermé","9h - 12h",,"48.361778","4.00465","1 Rue Henri Rodin 10180 Saint-Lyé","0.63","10180","Saint-Lyé","10349"
"10","Espaces France Services - Estissac","2 rue Laurent Lesséré 10 190 Estissac",,,"10190","ESTISSAC","Collectivité","Troyes Champagne Métropole","9h - 12h / 13h30 - 17h","9h - 12h / 13h30 - 17h","9h - 12h / 13h30 - 16h30","9h - 12h / 13h30 - 17h","9h - 12h / 13h30 - 16h30","Fermé",,"48.266388","3.808958","2 Rue Laurent Lesseré 10190 Estissac","0.66","10190","Estissac","10142"
"10","Espace France Services de Bar sur Aube","144 route Nationale",,,"10200","BAR-SUR-AUBE","Opérateur","MSA","9h15-12h15/13h30-16h30","9h15-12h15/13h30-16h30","9h15-12h15/13h30-16h30","9h15-12h15/13h30-16h30","9h15-12h15/13h30-16h30",,,"48.234738","4.704691","144 Rue Nationale 10200 Bar-sur-Aube","0.81","10200","Bar-sur-Aube","10033"
"10","Espace France Services de Soulaines","Espace France Services de Soulaines",,,"10200","SOULAINES DHUYS","Collectivité","CC Vendeuvre Soulaines","Fermé","14h-18h","10h-12h /14h-18h","10h-12h /14h-18h","10h-12h /14h-18h","9h - 12h30",,"48.374966","4.732648","Soulaines 10200 Soulaines-Dhuys","0.51","10200","Soulaines-Dhuys","10372"
"11","MAISON FRANCE SERVICES DU NARBONNAIS","8 AV DU MARECHAL FOCH",,,"11000","NARBONNE","PIMMS","PIMM’S du NARBONNAIS","8H30 – 12H / 14H – 17H","14H – 17H","8H30 – 12H / 14H – 17H","14H – 17H","8H30 – 12H / 14H – 17H",,,"43.187225","3.005378","8 Avenue du Marechal Foch 11100 Narbonne","0.78","11100","Narbonne","11262"
"11","MAISON FRANCE SERVICES CORBIERES MEDITERRANEE","2 PLACE DE LA LIBERATION",,,"11130","SIGEAN","PIMMS","PIMM’S du NARBONNAIS","14H – 17H","9H – 13H / 14H – 19H","9H – 13H / 14H – 17H","14H - 17H","9H – 12H",,,"43.0288","2.979497","2 Place de la Liberation 11130 Sigean","0.95","11130","Sigean","11379"
"11","PIEGE LAURAGAIS MALEPERE","62 RUE BON REPOS",,,"11150","BRAM","Collectivité","CDC PIEGE LAURAGAIS MALEPERE","8H30 – 12H / 13H30 - 17H","8H30 – 12H / 13H30 - 17H","8H30 – 12H / 13H30 - 17H","8H30 – 12H / 13H30 - 17H","8H30 – 12H / 13H30 - 17H",,,"43.482651","-1.553713","Rue Bon Repos 64200 Biarritz","0.46","64200","Biarritz","64122"
"11","MAISON FRANCE SERVICES DU LIMOUXIN","17 CHEMIN FARINIER",,,"11300","LIMOUX","Opérateur","MSA","8H30 – 12H","8H30 – 12H / 13H 30 – 17H","8H30 – 12H","8H30 – 12H","8H30 – 12H / 13H30 – 16H30",,,"43.057309","2.213259","17 Chemin Farinier 11300 Limoux","0.95","11300","Limoux","11206"
"11","MAISON FRANCE SERVICES DU MASSIF DE MOUTHOUMET","23, rue de la gare",,,"11330","MOUTHOUMET","Association","ADHCO CENTRE SOCIAL","9H – 12H30 / 14H – 17H30","9H – 12H30 / 14H – 17H30","9H – 12H30 / 14H – 17H30","9H – 12H30 / 14H – 17H30","9H – 12H30 / 14H – 17H30",,,"42.960276","2.526948","Rue de la Gare 11330 Mouthoumet","0.85","11330","Mouthoumet","11260"
"11","CASTELNAUDARY LAURAGAIS AUDOIS","9 Rue des Rosiers",,,"11410","SALLES SUR L’HERS","Association","ENERGIES PIEGE","8H30 – 12H","8H30 – 12H / 13H30 - 17H","8H30 – 12H / 13H30 - 17H","8H30 – 12H / 13H30 - 17H","8H30 – 12H",,,"43.293559","1.782531","9 Rue des Rosiers 11410 Salles-sur-l'Hers","0.94","11410","Salles-sur-l'Hers","11371"
"11","CARCASSONNE AGGLO","2 RUE DES FIGUERES",,,"11700","CAPENDU","Collectivité","CARCASSONNE AGGLO","8H – 13H / 14H – 17 H","8H – 13H / 14H – 17 H","8H – 12H","8H – 13H / 14H – 17 H","8H – 13H / 14H – 17 H",,,"43.184142","2.556949","2 Rue des Figuéres 11700 Capendu","0.94","11700","Capendu","11068"
"12","Espace France Services d’Arvieu","Place de l'Eglise",,,"12120","ARVIEU","Collectivité","Commune",,"10H-12H30/14H00-18H00","10H-12H30/14H00-16H00","10H-12H30/14H00-18H00","10H-12H30/14H00-18H00","10H-12H30",,"44.190221","2.661158","Place du Marche 12120 Arvieu","0.5","12120","Arvieu","12011"
"12","Espace  France Services du Pays d’Olt et d’Aubrac","2 rue du cours",,,"12130","SAINT-GENIEZ-D'OLT","Association","Centre social du Pays d’Olt","8H30-12H00/13H30-17H00","8H30-12H00/13H30-17H00","8H30-12H00/13H30-17H00","8H30-12H00/13H30-17H00","8H30-12H00/13H30-17H00",,,"44.465278","2.971895","2 Rue du Cours 12130 Saint Geniez d'Olt et d'Aubrac","0.72","12130","Saint Geniez d'Olt et d'Aubrac","12224"
"12","Espace  France Services de Réquista « Le Bercail »","Place des Anciens Combattants",,,"12170","RÉQUISTA","Association","Familles Rurales du Réquistanais",,,,,,,,"44.031745","2.535231","Place des Anciens Combattants 12170 Réquista","0.94","12170","Réquista","12197"
"12","Espace  France Services de Marcillac Vallon","11 Place de l'Eglise",,,"12330","MARCILLAC-VALLON","Collectivité","Communauté de communes de Conques Marcillac","13H30-17H30","9H00–12H30/13H30–17H30","9H00–12H30/13H30–17H30","9H00–12H30/13H30–17H30","9H00–12H30/13H30–17H30",,,"44.473881","2.463351","11 Place de l'Eglise 12330 Marcillac-Vallon","0.94","12330","Marcillac-Vallon","12138"
"12","Espaces France Services de Bozouls Comtal","1 Allée Paul Causse",,,"12340","BOZOULS","Association","Point Emploi Bozouls Comtal","9H00–12H30/13H30–17H30","9H00–12H30/13H30–17H30","9H00–12H30/13H30–17H30","9H00–12H30/13H30–17H30","9H00–12H30/13H30–17H00",,,"44.471058","2.722624","1 Allée Paul Causse 12340 Bozouls","0.94","12340","Bozouls","12033"
"12","Espace  France Services d’Argences en Aubrac","Place des Tilleuls",,,"12420","ARGENCES EN AUBRAC","Collectivité","Commune","9H00-12H00/13H30-17H30","9H00-12H00/13H30-17H30","9H00-12H00/13H30-17H30","9H00-12H00/13H30-17H30","9H00-12H00/13H30-17H30","9H00-12H00",,"44.803569","2.758876","Place des Tilleuls 12420 Argences en Aubrac","0.94","12420","Argences en Aubrac","12223"
"12","Espace France Services du Pays Ségali","35 Avenue de la Gare",,,"12800","NAUCELLE","Association","Centre social et rural du Pays Ségali","9H00–12H00/13H00–17H00","9H00–12H00/13H00–17H00","9H00–12H00/13H00–17H00","9H00–12H00/13H00–17H00","9H00–12H00/13H00–17H00",,"Oui","44.19603","2.343592","35 Avenue de la Gare 12800 Naucelle","0.94","12800","Naucelle","12169"
"13","Espace France Services Panier","11-13 rue Caisserie",,,"13002","MARSEILLE",,,,,,,,,,"43.297198","5.368716","13 Rue Caisserie 13002 Marseille","0.87","13002","Marseille","13202"
"13","Espace France Services Port St Louis","4, rue Jean Rouget",,,"13230","Port-Saint-Louis-du-Rhône",,,,,,,,,,"43.3873","4.801791","4 Rue Jean Rouget 13230 Port-Saint-Louis-du-Rhône","0.95","13230","Port-Saint-Louis-du-Rhône","13078"
"13","Espace France Services Stes Maries de la Mer","2 avenue Léon Gambetta",,,"13460","Saintes-Maries-de-la-Mer","La Poste",,,,,,,,,"43.450832","4.429546","Rue Léon Gambetta 13460 Saintes-Maries-de-la-Mer","0.82","13460","Saintes-Maries-de-la-Mer","13096"
"13","Espace France Services La Ciotat","1222 Avenue Guillaume DULAC",,,"13600 ","La Ciotat",,,,,,,,,,"43.19608","5.612881","1222 Avenue Guillaume Dulac 13600 La Ciotat","0.95","13600","La Ciotat","13028"
"14","Espace France Services de Caen Pierre Heuzé","15 place Champlain",,,"14000","CAEN","Collectivité","Mairie de quartier","9h-12h et 13h-18h","9h-12h et 13h-18h","9h-12h et 13h-18h","9h-12h et 13h-18h","9h-12h et 13h-18h","pendant les vacances scolaires 
9h-12h et 13h-17h",,"49.197716","-0.347423","15 Place Champlain 14000 Caen","0.96","14000","Caen","14118"
"14","Espace France Services de Caen Venoix","18 avenue des chevaliers",,,"14000","CAEN","Collectivité","Mairie de quartier","9h-12h et 13h-18h","9h-12h et 13h-18h","9h-12h et 13h-18h","9h-12h et 13h-18h","9h-12h et 13h-18h","pendant les vacances scolaires 
9h-12h et 13h-17h",,"49.176745","-0.400691","18 Avenue des Chevaliers 14000 Caen","0.96","14000","Caen","14118"
"14","Espace France Services de Condé en Normandie","31 place de l’hôtel de ville",,,"14110","CONDE EN NORMANDIE","Collectivité","CCAS","8h30-12h00 et 14h00-17h00 ","8h30-12h00 et 14h00-17h00 ","8h30-12h00 et 14h00-17h00 ","8h30-12h00 et 14h00-17h00 ","8h30-12h00 et 14h00-17h00 ","non",,"48.850754","-0.55301","31 Place de l'Hotel de Ville 14110 Condé-en-Normandie","0.95","14110","Condé-en-Normandie","14174"
"14","Espace France Services de Terre d’Auge","43 rue Georges Clémenceau",,,"14130","PONT L’EVEQUE","Collectivité","Siège EPCI","13h30-16h30","8h30-12h30 et 13h30-16h00","8h30-12h30 et 13h30-16h00","8h30-12h30 et 13h30-16h00","8h30-12h30 et 13h30-16h00",,,"49.288806","0.194982","43 Rue Georges Clémenceau 14130 Pont-l'Évêque","0.95","14130","Pont-l'Évêque","14514"
"14","Espace France Services de Ouistreham","Place Albert Lemarignier",,,"14150","OUISTREHAM","Collectivité","mairie","8h30-12h et 13h30-17h30","8h30-12h et 13h30-17h30","8h30-12h et 13h30-17h30","8h30-12h et 13h30-17h30","8h30-12h et 13h30-17h30","10h00 – 12h00",,"49.27589","-0.258646","Place Albert Lemarignier 14150 Ouistreham","0.95","14150","Ouistreham","14488"
"14","Espace France Services de Le Hom","4 rue du Dr Gourdin
Thury Harcourt",,,"14220","THURY-HARCOURT- LE HOM","Collectivité","Siège EPCI","8h30-12h et 13h30-17h00","8h30-12h et 13h30-17h00","8h30-12h","8h30-12h et 13h30-17h00","8h30-12h et 13h30-17h00","non",,"48.986703","-0.472436","4 Rue Docteur Gourdin 14220 Le Hom","0.42","14220","Le Hom","14689"
"14","Espace France Services d’Isigny sur mer","16 rue Emile Demagny",,,"14230","ISIGNY SUR MER","Collectivité","Antenne EPCI","9h-12h et 14h-17h","9h-12h et 14h-17h","9h-12h et 14h-17h","9h-12h et 14h-17h","9h-12h et 14h-17h","non",,"49.319036","-1.100551","16 Rue Emile Demagny 14230 Isigny-sur-Mer","0.94","14230","Isigny-sur-Mer","14342"
"14","Espace France Services de Mézidon","12 rue Voltaire ",,,"14270","MEZIDON VALLEE D’AUGE","Collectivité","Anrtenne EPCI","13h-18h","9h30-12h30 et 13h30-17h30","9h30-12h30 et 13h30-17h30","9h30-12h30 et 13h30-17h30","9h30-12h30 et 13h30-17h30","9h-12h",,"49.071887","-0.07376","12 Rue Voltaire 14270 Mézidon Vallée d'Auge","0.95","14270","Mézidon Vallée d'Auge","14431"
"14","Espace France Services de Val ès Dunes","9 rue Léonard Gille",,,"14370","BELLENGREVILLE","Collectivité","Celle Emploi de la Cc Val ès Dunes","8h30-12h30 et 13h30-16h30
","8h30-12h30 et 13h30-16h30
","8h30-12h30 et 13h30-16h30
","8h30-12h30 et 13h30-16h30
","8h30-12h30 et 13h30-16h30
","non",,"49.126024","-0.213907","9 Rue Léonard Gille 14370 Bellengreville","0.94","14370","Bellengreville","14057"
"14","Espace France Services de Noues de Siennes","1 place de la mairie",,,"14380","SAINT SEVER-NOUES DE SIENNES","Collectivité","Centre socio-culturel communal","8h30-12h15 et 13h15-17h","8h30-12h15 et 13h15-17h","8h30-12h15","8h30-12h15 et 13h15-17h","8h30-12h15 et 13h15-17h","non",,"48.84107","-1.047745","Place de la Mairie - St Sever 14380 Noues de Sienne","0.81","14380","Noues de Sienne","14658"
"14","Espace France Services de Dozulé","128 grande rue",,,"14430","DOZULE","Collectivité","Antenne EPCI","8h45-12h30 et 13h30-17h","8h45-12h30 et 13h30-17h","8h45-12h30","8h45-12h30 et 13h30-17h","8h45-12h30 et 13h30-17h","non",,"49.230952","-0.045018","128 Grande Rue 14430 Dozulé","0.94","14430","Dozulé","14229"
"14","Espace France Services de Courseulles sur Mer","4 rue Arthur Leduc",,,"14470","COURSEULLES SUR MER","Collectivité","CCAS","9h-12h30 et 14h-17h","9h-12h30 et 14h-17h","9h-12h30 et 14h-17h","9h-12h30 et 14h-17h","9h-13h et 14h-16h30","non",,"49.334117","-0.456807","4 Rue Arthur Leduc 14470 Courseulles-sur-Mer","0.95","14470","Courseulles-sur-Mer","14191"
"14","Espace France Services de Troarn","Place Raphaël Briard",,,"14670","TROAN","Collectivité","CCAS","8h30-11h-45 et 13h30-17h15","8h30-11h-45 et 13h30-17h15","8h30-11h45","8h30-11h45 (sur RDV) 
Et 13h30-17h15","8h30-11h-45 et 13h30-16h15",,,"49.182819","-0.182488","Rue Raphael Briard 14670 Saline","0.62","14670","Saline","14712"
"15","Chaudes Aigues","29 Avenue Pierre Vialard",,,"15110","CHAUDES-AIGUES","Collectivité","Saint-Flour Communauté","8h30 -12h / 13h30 -17h","8h30 -12h / 13h30 -17h","8h30 -12h / 13h30 -17h","8h30 -12h / 13h30 -17h","8h30 -12h / 13h30 -17h",,,"44.855043","3.005663","29 Avenue Pierre Vialard 15110 Chaudes-Aigues","0.94","15110","Chaudes-Aigues","15045"
"15","Maison France Services de Murat - Antenne de Neussargues en Pinatelle","25 rue de la gare",,,"15170","Neussargues en Pinatelle","Collectivité","Hautes terres Communauté","13h30 - 17h30","9h30 - 12h / 13h30 - 17h30","9h30 - 12h / 13h30 - 17h30","9h30 - 12h / 13h30 - 17h30","9h30 - 12h / 13h30 - 17h30","9h30 - 12h",,"45.125629","2.976712","25 Rue de la Gare 15170 Neussargues en Pinatelle","0.94","15170","Neussargues en Pinatelle","15141"
"15","Pierrefort","6 Rue de l'Aubrac",,,"15230","PIERREFORT","Collectivité","Saint-Flour Communauté","9h - 12h ","9h - 12h / 13h30 - 17h30","9h - 12h / 13h30 - 17h30","9h - 12h / 13h30 - 17h30","9h - 12h ",,,"44.92519","2.841721","6 Rue de l'Aubrac 15230 Pierrefort","0.94","15230","Pierrefort","15152"
"15","Maison France Services de Murat","4 Rue du Faubourg Nôtre-dame",,,"15300","MURAT","Collectivité","Hautes terres Communauté","9h - 12h / 13h30 - 17h30","9h - 12h / 13h30 - 17h30","9h - 12h / 13h30 - 17h30","9h - 12h / 13h30 - 17h30","9h - 12h / 13h30 - 17h30","9h - 12h / 13h30 - 17h30",,"45.11087","2.869814","4 Rue du Faubourg Nôtre-dame 15300 Murat","0.94","15300","Murat","15138"
"16","Montmoreau","35 avenue d'aquitaine",,,"16190","MONTMOREAU",,,,,,,,,,"45.396117","0.130144","35 Avenue de l'Aquitaine 16190 Montmoreau","0.83","16190","Montmoreau","16230"
"16","Espace France Services Barbezieux","32 rue de la Motte",,,"16300","BARBEZIEUX – SAINT-HILAIRE","Collectivité","Communauté de Communes","8h30-12h30 / 13h30-16h30","8h30 - 12h30","8h30-12h30","8h30-12h30","8h30-12h30 / 15h30-16h30","-",,"45.473486","-0.157919","32 Rue de la Motte 16300 Barbezieux-Saint-Hilaire","0.95","16300","Barbezieux-Saint-Hilaire","16028"
"16","Montemboeuf","22 Rue Laugérias",,,"16310","MONTEMBOEUF","La Poste",,,,,,,,,"45.777575","0.551858","22 Rue Laugieras 16310 Montembœuf","0.79","16310","Montembœuf","16225"
"16","Saint-Séverin","4 Rue de la Pavancelle",,,"16390","SAINT-SÉVERIN",,,,,,,,,,"45.312623","0.253223","4 Rue de la Pavancelle 16390 Saint-Séverin","0.94","16390","Saint-Séverin","16350"
"17","Centre Arc en Ciel","8 Rue de l'Hotel de Ville ",,,"17120","COZES",,,,,,,,,,"45.584277","-0.830946","8 Rue de l'Hotel de Ville 17120 Cozes","0.94","17120","Cozes","17131"
"17","LA MAISON Pop’","Avenue de la Gare",,,"17130","MONTENDRE",,,,,,,,,,"45.282004","-0.396837","Avenue de la Gare 17130 Montendre","0.94","17130","Montendre","17240"
"17","MIS Maison des Initiatives Marennes","Rue Dubois Meynardie ",,,"17320","MARENNES-HIERS-BROUAGE",,,,,,,,,,"45.822826","-1.109971","Rue Dubois Meynardie 17320 Marennes-Hiers-Brouage","0.95","17320","Marennes-Hiers-Brouage","17219"
"17","Pôle Service Saint-Jean-d’Angély","3 Rue de Dampierre ",,,"17400","SAINT-JEAN-D'ANGÉLY",,,,,,,,,,"45.947368","-0.514339","3 Rue de Dampierre 17400 Saint-Jean-d'Angély","0.95","17400","Saint-Jean-d'Angély","17347"
"17","Espace France Services Saint Martin de Ré","Place de la République",,,"17410","SAINT-MARTIN-DE-RÉ","La Poste",,,,,,,,,"46.202183","-1.367975","Place de la République 17410 Saint-Martin-de-Ré","0.94","17410","Saint-Martin-de-Ré","17369"
"17","Tonnay-Charente","20 Avenue du Général de Gaulle ",,,"17430","TONNAY-CHARENTE",,,,,,,,,,"45.944822","-0.894744","20 Avenue du Général de Gaulle 17430 Tonnay-Charente","0.95","17430","Tonnay-Charente","17449"
"17","Tonnay-Charente","20 Avenue du Général de Gaulle ",,,"17430","TONNAY-CHARENTE",,,,,,,,,"Oui","45.944822","-0.894744","20 Avenue du Général de Gaulle 17430 Tonnay-Charente","0.95","17430","Tonnay-Charente","17449"
"17","MSA Jonzac","1 place 8 Mai 1945",,,"17500","JONZAC",,,,,,,,,,"45.447081","-0.432754","1 Place du 8 Mai 1945 17500 Jonzac","0.86","17500","Jonzac","17197"
"17","Espace France Services de Médis","25 Rue du 4e Zouave ",,,"17600","MÉDIS","La Poste",,,,,,,,,"45.643817","-0.964325","25 Rue du 4e Zouave 17600 Médis","0.94","17600","Médis","17228"
"18","Espace France Services de Sancoins","38 rue de la croix blanche",,,"18600","SANCOINS",,,,,,,,,,"46.829326","2.917966","38 Rue de la Croix Blanche 18600 Sancoins","0.94","18600","Sancoins","18242"
"18","Aubigny sur Nère","6 rue du 8 mai 1945",,,"18700","AUBIGNY SUR NÈRE",,,,,,,,,,"47.485101","2.434796","6 Avenue du 8 Mai 1945 18700 Aubigny-sur-Nère","0.81","18700","Aubigny-sur-Nère","18015"
"19","Espace France Services de Saint-Ybard","1 Rue des Fontaines",,,"19140","SAINT-YBARD","Collectivité","Commune (et partenariat privilégié avec chambre d’agriculture)","8h30 - 12h / 13h30 – 17h","8h30 - 12h / 13h30 – 17h","8h30 – 12h","8h30 - 12h / 13h30 – 17h","8h30 - 12h / 13h30 – 17h","-",,"45.447364","1.521527","1 Rue des Fontaines 19140 Saint-Ybard","0.94","19140","Saint-Ybard","19248"
"19","Espace France Services d’Ayen","Place Louis Mareuse",,,"19310","AYEN","Collectivité","Commune","9h - 12h / 14h – 16h30","9h - 12h / 14h – 16h30","9h - 12h / 14h – 16h30","9h - 12h / 14h – 16h30","9h - 12h / 14h – 16h30","9h – 12h",,"45.246503","1.326471","Place Louis Mareuse 19310 Ayen","0.94","19310","Ayen","19015"
"19","Espace France Services de Chamberet","Place du Monument",,,"19370","CHAMBERET","La Poste","La Poste","9h - 12h / 14h – 17h","9h - 12h / 14h – 17h","9h - 12h / 14h – 17h","9h - 12h / 14h – 17h","9h - 12h / 14h – 17h","9h – 12h",,"45.5831","1.720982","Place du Monument 19370 Chamberet","0.94","19370","Chamberet","19036"
"2A","Espace France Services des Jardins de l'Empereur - Ajaccio","Avenue de la Grande Armée Jardins de l'Empereur","Tour Napoleon",,"20000","AJACCIO","Collectivité","Commune AJACCIO","9H-16h","9H-16h","9H-16h","9H-16h","9H-16h","fermée",,"41.927045","8.734319","Avenue de la Grande Armée 20000 Ajaccio","0.52","20000","Ajaccio","2A004"
"2A","Espace France Services de Vico","COURS JEAN ETIENNE COLONNA","La Poste",,"20160","VICO","La Poste",,"9h - 12h / 14h - 16h","9h - 12h / 14h - 16h","9h - 12h / 14h - 16h","9h - 12h / 14h - 16h","9h - 12h / 14h - 16h","10h - 12h",,"45.419349","4.402586","Rue Auguste Colonna 42100 Saint-Étienne","0.35","42100","Saint-Étienne","42218"
"2B","France Services CALACUCCIA","Piazza al Forno",,,"20224","Calaccucia ","La Poste",,,,,,,,,"42.335357","9.016688","Piazza Al Forno 20224 Calacuccia","0.93","20224","Calacuccia","2B047"
"2B","France Services CASTELLO-DI-ROSTINO","Ponte Novu",,,"20235","Castello-di-Rostino","La Poste",,,,,,,,,"42.485008","9.28094","Ponte Novo 20235 Castello-di-Rostino","0.84","20235","Castello-di-Rostino","2B079"
"21","Espace France Services de IS-sur-TILLE","20 Place Général Leclerc",,,"21120","IS-SUR-TILLE","Collectivité","CCAS Is-sur-Tille","9h-12h/13h30-17h","9h-12h/13h30-17h","9h-12h/13h30-17h","9h-12h/13h30-17h","9h-12h/13h30-16h30",,,"47.521601","5.112966","20 Place Général Leclerc 21120 Is-sur-Tille","0.95","21120","Is-sur-Tille","21317"
"21","Espace France Services de SEMUR-en-AUXOIS","1 Avenue Pasteur",,,"21140","SEMUR-EN-AUXOIS","Collectivité","CCAS Semue-en-Auxois","9h-12h/ 13h15-18h15","8h30-12h/13h30-18h15","9h-13h/14h-18h15","8h30-12h30/14h-19h","9h-13h/13h30-17h","9h-12h les 2ème et 4ème du mois",,"47.493786","4.346018","1 Avenue Pasteur 21140 Semur-en-Auxois","0.95","21140","Semur-en-Auxois","21603"
"21","Espace France Services de ARNAY-le-DUC","3 Rue de la Gare",,,"21230","ARNAY-LE-DUC","Association","Association du centre social d’Arnay-
le-Duc","9h-12h/13h30-17h","9h-12h/13h30-17h","9h-12h/13h30-17h","9h-12h/13h30-17h","9h-12h/13h30-17h","/",,"47.13087","4.49111","3 Rue de la Gare 21230 Arnay-le-Duc","0.94","21230","Arnay-le-Duc","21023"
"21","Espace France Services de PONTAILLER-sur-SAONE","1 Rue des Saucis",,,"21270","PONTAILLER-SUR-SAÔNE","Collectivité","CC Auxonne Pontailler Val de Saône"," 14h – 17h","9h - 12h / 14h – 17h","9h - 12h / 14h – 17h","9h - 12h / 14h – 17h","9h - 12h / 14h – 17h","/",,"47.314203","5.408484","1 Rue des Saucis 21270 Pontailler-sur-Saône","0.94","21270","Pontailler-sur-Saône","21496"
"21","Espace France Services de MIREBEAU-sur-BEZE","6 Place du General Viard",,,"21310","MIREBEAU-SUR-BÈZE","Collectivité","CC du Mirebellois et du Fontenois","13h30-16h30","8h45-12h/13h30-16h30","8h45-12h/13h30-16h15","8h45-12h/13h30-17h30","8h45-12h","/",,"47.39727","5.315046","6 Place du General Viard 21310 Mirebeau-sur-Bèze","0.94","21310","Mirebeau-sur-Bèze","21416"
"22","Espace France Services Saint-Brieuc","Rue de Genève",,,"22000","SAINT-BRIEUC","Collectivité","Ville de Saint-Brieuc","08h/16h","08h/16h","08h/12h","08h/16h","08h/16h","/",,"48.517271","-2.745375","Rue de Genève 22000 Saint-Brieuc","0.96","22000","Saint-Brieuc","22278"
"22","Espace France Services Tréguier","12 rue Lamennais",,,"22220","TRÉGUIER","Collectivité","Lannion Trégor Communauté","09h-12h/13h30-16h30","09h-12h/13h30-16h30","09h-12h/13h30-16h30","09h-12h/13h30-16h30","09h-12h/13h30-16h30","/",,"48.789826","-3.229378","12 Rue Lamennais 22220 Tréguier","0.94","22220","Tréguier","22362"
"22","Espace France Services Le Mené","24 La Croix de Jeanne Even",,,"22330","LE MENÉ","Collectivité","Commune Le Mené","09h-12h30/13h30-17h00","09h-12h30/13h30-17h00","09h-12h30/13h30-17h00","09h-12h30/13h30-17h00","09h-12h30/13h30-17h00","/",,"48.294881","-2.521874","24 La Croix de Jeanne Even 22330 Le Mené","0.95","22330","Le Mené","22046"
"22","Espace France Services Loudéac","15 Rue de Moncontour",,,"22600","LOUDÉAC","Collectivité","Loudéac Communauté Bretagne Centre","09h-12h/13h-17h","09h-12h/13h-17h","09h-12h/13h-17h","09h-12h/13h-17h","09h-12h/13h-17h","09h/12h",,"48.177776","-2.756012","15 Rue de Moncontour 22600 Loudéac","0.95","22600","Loudéac","22136"
"23","Espace France Services de Boussac","Quartier Pasteur",,,"23600","BOUSSAC","Collectivité","Communauté de communes Creuse Confluence","9h-12h/13h30-17h","9h-12h/13h30-17h","9h-12h/14h-16h30","9h-12h/13h30-17h","9h-12h/14h-16h30","9h30-12h",,"46.349084","2.216669","Quartier Pasteur 23600 Boussac","0.94","23600","Boussac","23031"
"23","La Palette","9 Place de la Poste",,,"23800","DUN-LE-PALESTEL","Collectivité","Communauté de communes du Pays Dunois","         Juin à septembre :14h-17h30         Eté : 10h-12h30/13h30-18h","Juin à septembre :9h-12h/14h-17h30 Été : 10h-12h30/13h30-18h  ","Juin à septembre :9h-12h/14h-17h30     Été : 10h-12h30/13h30-18h","Juin à septembre :9h-12h/14h-17h30     Été : 10h-12h30/13h30-18h","         Juin à septembre :14h-17h30          Été : 10h-12h30/13h30-18h","Juin à septembre : 9h-12h",,"46.305329","1.663737","9 Place de la Poste 23800 Dun-le-Palestel","0.94","23800","Dun-le-Palestel","23075"
"24","Espace France Services de Belvès","58 Avenue du Lieutenant Giffault",,,"24170","PAYS DE BELVÈS","Collectivité","CC Dordogne Forêt Bessede","9h-12h","9h12h 13h30 -16h30","9h-12h","9h12h 13h30 -16h30","9h12h 13h30 -16h30",,,"44.774489","1.002403","58 Avenue du Lieutenant Giffault 24170 Pays de Belvès","0.94","24170","Pays de Belvès","24035"
"24","Espace France Services de Thenon Hautefort - Thenon","5, place Montaigne",,,"24210","THENON","Collectivité","CCAS","9h-12h 13H30-16H","9h - 12h  14h – 17h30","9h - 12h  14h – 17h30","14h-17h30","9h - 12h  14h – 17h30",,,"45.136399","1.071554","5 Place Michel Montaigne 24210 Thenon","0.76","24210","Thenon","24550"
"24","Espace France Services de Lanouaille","9 place de la Fontaine Bugeaud",,,"24270","LANOUAILLE","La Poste","La Poste","9h-12h 13H30-16H","9h-12h 13H30-16H","9h-12h 13H30-16H","9h-12h 13H30-16H","9h-12h 13H30-16H","9h-12h",,"45.391435","1.139449","9 Place de la Fontaine Bugeaud 24270 Lanouaille","0.94","24270","Lanouaille","24227"
"24","Espace France Services de Nontron","12 bis Boulevard Gambetta",,,"24300","NONTRON","Etat","Sous préfecture","9h-12h 13h-15h","9h-12h 14H-16H","9h-12h 14h-16H","9h-12h 13h-15h","9h-12h 14h-16H",,,"45.532329","0.660902","12 bis Boulevard Gambetta 24300 Nontron","0.94","24300","Nontron","24311"
"24","Espace France Services de Thenon Hautefort - Hautefort","200 avenue Sylvain FLOIRAT",,,"24390","HAUTEFORT","Collectivité","Mairie de Hautefort","9h-12h 13h30-17h","9h-12h 13h30-17h","9h-12h 13h30-17h","9h-12h 13h30-17h","9h-12h 13h30-17h",,,"45.260751","1.146947","200 Rue Sylvain Floirat 24390 Hautefort","0.79","24390","Hautefort","24210"
"24","Espace France Services de Mussidan","Place Woodbridge",,,"24400","MUSSIDAN","Collectivité","CC Isle Crempse en Perigord","9h-12h 14H-16H","9h-12h 14H-16H","9h-12h 14H-16H","9h-12h 14H-16H","9h-12h 14H-16H",,,"45.037127","0.364799","Place Woodbridge 24400 Mussidan","0.94","24400","Mussidan","24299"
"24","Espace France Services  Saint Exupéry","60 ter Avenue du Général de Gaulle","Espace Jules Verne",,"24660","COULOUNIEIX-CHAMIERS","Association","Centre social Saint Exupéry","8h30-12h 13h30-17h","8h30-12h 13h30-17h","8h30-12h 13h30-17h","8h30-12h 13h30-17h","8h30-12h 13h30-17h",,,"45.189052","0.697801","60 ter Avenue du Général de Gaulle 24660 Coulounieix-Chamiers","0.73","24660","Coulounieix-Chamiers","24138"
"25","Espace France Services Besançon Planoise","7 – 9 rue Pablo Picasso",,,"25000","BESANÇON","Collectivité","CCAS de Besançon","8 h 30 – 12 h 30 et 13 -30 à 17 h","9 h 30 – 12 h 30 et 13 -30 à 17 h","8 h 30 – 12 h 30 et 13 -30 à 17 h","8 h 30 – 12 h 30 et 13 h 30 à 17 h","8 h 30 à 17 h 30 en continu",,,"47.2194","5.97343","9 Rue Pablo Picasso 25000 Besançon","0.91","25000","Besançon","25056"
"25","Espace France Services Baume les Dames","3 Place de la Republique",,,"25110","BAUME-LES-DAMES","Collectivité","Commune de Baume les Dames","9 h à 12 h et 13h 30 à 17 h 30","9 h à 12 h et 13h 30 à 17 h 30 (après midi sur rendez vous)","9 h à 12 h ","13 h 30 à 17 h 30","9 h à 12 h et 13 h 30 – 17 h",,,"47.352575","6.36156","3 Place de la Republique 25110 Baume-les-Dames","0.95","25110","Baume-les-Dames","25047"
"25","Espace France Services Montbéliard","12 Rue Maurice Ravel",,,"25200","MONTBELIARD","Collectivité","France Victimes Nord Franche-Comté","9 h à 12 h et 13 h à 17 h","9 h à 12 h et 13 h à 17 h","9 h à 12 h et 13 h à 17 h","9 h à 12 h et 13 h à 17 h","9 h à 12 h et 13 h à 17 h",,,"47.499355","6.798311","12 Rue Maurice Ravel 25200 Montbéliard","0.95","25200","Montbéliard","25388"
"25","Espace France Services Premiers Sapins","8 Rue de la Scierie",,,"25580","LES PREMIERS SAPINS","Collectivité","Commune des Premiers Sapins","13 h 30 à 16 h 30","13 h 30 à 16 h 30","8 h 30 à 11 h 30","13 h 30 à 18 h","9 h à 16 h 30",,,"47.09857","6.336511","8 Rue de la Scierie 25580 Les Premiers Sapins","0.94","25580","Les Premiers Sapins","25424"
"25","Espace France Services Sochaux","4 Rue de la Poste",,,"25600","SOCHAUX","Collectivité","France Victimes Nord Franche-Comté","9 h à 12 h et 13 h à 17 h","9 h à 12 h","13 h à 18 h","9 h à 12 h et 13 h à 17 h","9 h à 12 h ",,,"47.513503","6.831016","4 Rue de la Poste 25600 Sochaux","0.94","25600","Sochaux","25547"
"25","Espace France Services Valdahon","5 Place du Général de Gaulle",,,"25800","VALDAHON","Collectivité","Commune de Valdahon","8 h 30 à 12 h et 13 h 30 à 17 h 30","8 h 30 à 12 h et 13 h 30 à 17 h 30","8 h 30 à 12 h et 13 h 30 à 17 h 30","8 h 30 à 12 h et 13 h 30 à 17 h 30","8 h 30 à 12 h et 13 h 30 à 17 h (accueil fermé l’après midi)",,,"47.147983","6.345019","5 Place du Général de Gaulle 25800 Valdahon","0.95","25800","Valdahon","25578"
"26","Espace France Services de Die","200 Avenue de la Clairette",,,"26150","DIE","Collectivité","EPLEFPA Le Valentin","9h- 13h/14h- 17h","9h- 13h","9h- 13h/14h- 17h","9h-13h","9h- 13h",,,"44.760287","5.359735","200 Avenue de la Clairette 26150 Die","0.95","26150","Die","26113"
"26","Espace France Services de Saint-Jean-en-Royans","78 rue Jean-Jaurès",,,"26190","ST-JEAN-EN-ROYANS","Collectivité","CC Royans-Vercors","8h30- 12h/ 13h30-17h30","8h30- 12h/ 13h30- 19h","10h-12h/ 13h30- 17h30","8h30-12h/ 13h30- 17h30","8h30- 12h/ 13h30- 17h",,,"45.015301","5.291459","78 Rue Jean Jaurès 26190 Saint-Jean-en-Royans","0.84","26190","Saint-Jean-en-Royans","26307"
"26","Espace France Services de Livron","90 Avenue Joseph Combier",,,"26250","LIVRON-SUR-DRÔME","Collectivité","CC Val de Drôme","8h- 12h/ 13h- 17h","8h-12h","8h- 12h/ 13h- 17h","8h- 12h","8h- 12h/ 13- 17h",,,"44.768063","4.840602","90 Avenue Joseph Combier 26250 Livron-sur-Drôme","0.95","26250","Livron-sur-Drôme","26165"
"26","Espace France Services de Donzère","130 Avenue de la Gare",,,"26290","DONZÈRE","PIMMS","PIMMS portes de Provence","8h- 12-30/ 13h30- 18h15","8h- 12h30/ 17h- 18h15","8h- 12h30/ 17h- 18h15","8h- 12h30 / 17h- 18h15","8h- 12h30",,,"44.443442","4.704757","130 Avenue de la Gare 26290 Donzère","0.95","26290","Donzère","26116"
"27","Relais des Services Publics - Evreux Portes de Normandie","1 Rue F et Irene Joliot Curie",,,"27000","EVREUX","Collectivité","Evreux Portes de Normandie","10h30 - 12h30 / 14h - 19h","9H - 12h30 / 14h - 19h","9H - 12h30 / 14h - 19h","9H - 12h30 / 14h - 19h","9h / 14h","Fermée",,"49.009782","1.16086","1 Rue F et Irene Joliot Curie 27000 Évreux","0.96","27000","Évreux","27229"
"27","Espace France Services d’Étrépagny","3 Rue Maison de Vatimesnil",,,"27150","ÉTRÉPAGNY","Collectivité","CC du Vexin Normand","9h- 12h30 / 13h30 - 17h","9h- 12h30 / 13h30 - 17h","9h- 12h30 / 13h30 - 17h","9h- 12h30 / 13h30 - 17h","9h- 12h30 / 13h30 - 17h","Fermée",,"49.303043","1.612655","3 Rue Maison de Vatimesnil 27150 Étrépagny","0.94","27150","Étrépagny","27226"
"27","Espace France Services à Beaumont-le-Roger","1 bis rue de l’Église",,,"27170","BEAUMONT-LE-ROGER","Collectivité","Intercom BernayTerres de Normandie","14h - 18h","9h - 12h30 / 14h - 18h","9h - 12h30 / 14h - 18h","9h - 12h30 / 14h - 18h","9h - 12h30 / 14h - 18h","Fermée",,"49.081321","0.778501","Place de l'Eglise 27170 Beaumont-le-Roger","0.72","27170","Beaumont-le-Roger","27051"
"27","Espace France Services de Rugles","33 t Rue Aristide Briand",,,"27250","RUGLES","Collectivité","Interco Normandie Sud Eure","9H-12H30/13H30-18h30","9H-12H30/13H30-17h","9H-12H30/13H30-17h","9H-12H30/13H30-18h30","9H-12H30/13H30-17h","Fermée",,"48.822131","0.710076","33 t Rue Aristide Briand 27250 Rugles","0.94","27250","Rugles","27502"
"27","Espace France Services à la Trinité-de-Réville","652 Route de l'Eglise",,,"27270","LA TRINITÉ-DE-RÉVILLE","Collectivité","Intercom BernayTerres de Normandie","9h - 12h / 14h - 17h30","9h - 12h / 14h - 17h30","9h - 12h / 14h - 17h30","9h - 12h / 14h - 17h30","9h - 12h / 14h - 17h","Fermée",,"48.972311","0.511642","652 Route de l'Eglise 27270 La Trinité-de-Réville","0.93","27270","La Trinité-de-Réville","27660"
"27","Espace Condorcet France Services Gaillon","14 Rue Jean-moulin",,,"27600","GAILLON","Association","Espace Condorcet Gaillon","8h30 - 12h30 / 13h15 - 18h00","8h30 - 12h30 / 13h15 - 18h00","8h30 - 12h30 / 13h15 - 18h00","8h30 - 12h30 / 13h15 - 18h00","8h30 - 12h30 / 13h15 - 18h00","Fermée",,"49.16151","1.336922","14 Rue Jean-moulin 27600 Gaillon","0.95","27600","Gaillon","27275"
"27","Espace France Services des Andelys","Rue des Oiseaux",,,"27700","LES ANDELYS","Collectivité","Centre social des Andelys","8h45 – 12h / 13h30-17h","8h45 – 12h / 13h30-17h","8h45 – 12h / 13h30-17h","8h45 – 12h / 13h30-17h","8h45 – 12h / 13h30-17h","Fermée",,"49.246056","1.418078","Rue des Oiseaux 27700 Les Andelys","0.95","27700","Les Andelys","27016"
"28","LA LOUPE ","18 Rue de la Gare",,,"28240","LA LOUPE",,,,,,,,,,"48.473352","1.011705","18 Rue de la Gare 28240 La Loupe","0.94","28240","La Loupe","28214"
"28","SENONCHES","2 Rue de Verdun",,,"28250","SENONCHES",,,,,,,,,,"48.560658","1.033","2 Rue de Verdun 28250 Senonches","0.94","28250","Senonches","28373"
"28","AUTHON-DU-PERCHE","1 Place de la Mairie",,,"28330","AUTHON-DU-PERCHE",,,,,,,,,,"48.195217","0.896835","1 Place de la Mairie 28330 Authon-du-Perche","0.94","28330","Authon-du-Perche","28018"
"29","OUESSANT","Bourg",,,"29000","OUESSANT","La Poste",,,,,,,,,"47.983893","-4.081398","Rue d'Ouessant 29000 Quimper","0.52","29000","Quimper","29232"
"29","PIMMS DE QUIMPER CORNOUAILLE","2 Rue de l'Ile de Man",,,"29000","QUIMPER","PIMMS",,,,,,,,,"47.98812","-4.128679","2 Rue de l'Ile de Man 29000 Quimper","0.96","29000","Quimper","29232"
"29","QUIMPER","2 Rue de l'Ile de Man",,,"29000","QUIMPER","PIMMS",,,,,,,,,"47.98812","-4.128679","2 Rue de l'Ile de Man 29000 Quimper","0.96","29000","Quimper","29232"
"29","QUIMPER","2 Rue de l'Ile de Man",,,"29000","QUIMPER",,,,,,,,,,"47.98812","-4.128679","2 Rue de l'Ile de Man 29000 Quimper","0.96","29000","Quimper","29232"
"29","CHATEAULIN","33 Quai Robert Alba",,,"29150","CHATEAULIN",,,,,,,,,,"48.198878","-4.087453","33 Quai Robert Alba 29150 Châteaulin","0.95","29150","Châteaulin","29026"
"29","PIMMS de BREST","31 Rue Saint-jacques",,,"29200","BREST",,,,,,,,,,"48.409929","-4.471316","31 Rue Saint-jacques 29200 Brest","0.96","29200","Brest","29019"
"29","PIMMS de BREST","31 Rue Saint-jacques",,,"29200","BREST","PIMMS",,,,,,,,,"48.409929","-4.471316","31 Rue Saint-jacques 29200 Brest","0.96","29200","Brest","29019"
"30","Espace France Services de Roquemaure","Place Chateauneuf",,,"30150","ROQUEMAURE",,,,,,,,,,"44.051936","4.779906","Place Chateauneuf 30150 Roquemaure","0.95","30150","Roquemaure","30221"
"30","Relais emploi intercommunal du Pont du Gard"," 	71 Avenue Geoffroy Perret",,,"30210","REMOULINS",,,,,,,,,,"43.939447","4.564049","71 Avenue Geoffroy Perret 30210 Remoulins","0.94","30210","Remoulins","30212"
"30","Centre communal d’Action Sociale","24 Rue Nicolas Lasserre",,,"30220","AIGUES-MORTES",,,,,,,,,,"43.570453","4.19872","24 Rue Nicolas Lasserre 30220 Aigues-Mortes","0.95","30220","Aigues-Mortes","30003"
"30","CALADE Calvisson","6 bis Avenue du 11 Novembre 1918",,,"30240","CALVISSON",,,,,,,,,,"43.781797","4.193019","6 bis Avenue du 11 Novembre 1918 30420 Calvisson","0.84","30420","Calvisson","30062"
"30","CALADE Sommières","1 Rue Poterie ",,,"30250","SOMMIERES",,,,,,,,,,"43.7857","4.087667","1 Rue Poterie 30250 Sommières","0.95","30250","Sommières","30321"
"30","Maison France Services de Cèze Cévennes","120 Route d'Uzès Prolongée",,,"30500","SAINT AMBROIX",,,,,,,,,,"44.248141","4.198303","120 Route d'Uzès Prolongée 30500 Saint-Ambroix","0.94","30500","Saint-Ambroix","30227"
"30","PIMMS de Nimes","4 bis Rue Daumier",,,"30900","NIMES","PIMMS",,,,,,,,,"43.820993","4.332689","4 bis Rue Daumier 30900 Nîmes","0.96","30900","Nîmes","30189"
"31","MFS Auterive CC BASSIN AUTERIVAIN","RD820  ZI Robert LAVIGNE",,,"31190","AUTERIVE",,,,,,,,,,"43.368673","1.445539","Zone Industrielle Lavigne 31190 Auterive","0.41","31190","Auterive","31033"
"31","MFS Val Aïgo - Villemur-sur-Tarn","2 avenue Saint Exupéry",,,"31340","VILLEMUR SUR TARN",,,,,,,,,,"43.86082","1.500555","2 Avenue Saint-exupéry 31340 Villemur-sur-Tarn","0.95","31340","Villemur-sur-Tarn","31584"
"31","MFS Rieumes CC CŒUR DE GARONNE","12, rue Notre Dame",,,"31370","RIEUMES",,,,,,,,,,"43.414465","1.11842","12 Rue Notre-dame 31370 Rieumes","0.94","31370","Rieumes","31454"
"31","MFS Nailloux - CC TERRES DU LAURAGAIS","1 rue de la république",,,"31560","NAILLOUX",,,,,,,,,,"43.356713","1.623405","1 Rue de la République 31560 Nailloux","0.94","31560","Nailloux","31396"
"31","MFS Val Aïgo - Antenne de bessières","26 Place du souvenir",,,"31660","BESSIÈRES ",,,,,,,,,,"43.80075","1.606565","26 Place du Souvenir 31660 Bessières","0.95","31660","Bessières","31066"
"32","Espace France Services Val de Gers","Ancien Couvent","16 Avenue Elysée Duffréchou",,"32140","MASSEUBE","Collectivité","Communauté de Communes Val de Gers",,"10h – 13h00","10 h – 13 h / 14h – 18h","10h – 13h00","10 h – 13 h / 14h – 18h","9h – 13h",,"43.427777","0.578462","16 Avenue Elysée Duffréchou 32140 Masseube","0.7","32140","Masseube","32242"
"32","Espace France Services de Plaisance du Gers","38 rue de l’Adour",,,"32160","PLAISANCE DU GERS","La Poste","La Poste","9h-12h / 13h30-16h30","9h-12h / 13h30-16h30","9h-12h / 13h30-16h30","9h-12h / 13h30-16h30","9h-12h / 13h30-16h30","9h-12h ",,"43.605419","0.045201","38 Rue de l'Adour 32160 Plaisance","0.76","32160","Plaisance","32319"
"32","Espace France Services d’ Artagnan en Fezensac","18 Rue des Cordeliers",,,"32190","VIC-FEZENSAC","Collectivité","Communauté de Communes Artagnan en Fezensac","9h30 - 16h30","9h30 – 16h30","9h30 - 16h30","9h30 - 16h30","9h30 - 16h30",,,"43.757189","0.301926","18 Rue des Cordeliers 32190 Vic-Fezensac","0.94","32190","Vic-Fezensac","32462"
"32","Espace France Services Val de Gers - Antenne de SEISSAN","1 Place Carnot",,,"32260","SEISSAN","Collectivité","Communauté de Communes Val de Gers","9h – 12 / 13h30 – 17h30","9h – 12 / 13h30 – 17h30","9h – 12 / 13h30 – 17h30","9h – 12 / 13h30 – 17h30","9h – 12 / 13h30 – 17h30",,,"43.492681","0.592072","1 Place Carnot 32260 Seissan","0.94","32260","Seissan","32426"
"32","Espace France Services Val de Gers - Antenne de BARRAN","45 rue du Docteur G. Demandès","Mairie de Barran",,"32350","BARRAN","Collectivité","Communauté de Communes Val de Gers",,"8h30 – 12h","8h30 – 12h / 13h30 – 17h","8h30 – 12h / 13h30 – 17h","8h30 – 12h","8h30 – 12h",,"43.616542","0.442847","45 Rue du Docteur Demandes 32350 Barran","0.63","32350","Barran","32029"
"32","Espace France Services de Fleurance","62 Rue Adolphe Cadéot",,,"32500","FLEURANCE","Collectivité","Commune de Fleurance
Gestion : CCAS de Fleurance","8h30 – 12h30 / 13h30 – 17h","8h30 – 12h30 / 13h30 – 17h","8h30 – 12h30 / 13h30 – 17h","8h30 – 12h30 / 13h30 – 17h","8h30 – 12h30 / 13h30 – 16h30",,,"43.850282","0.661762","62 Rue Adolphe Cadéot 32500 Fleurance","0.95","32500","Fleurance","32132"
"32","Espace France Services de Lectoure","2 Cours Gambetta",,,"32700","LECTOURE","Collectivité","Commune de Lectoure
Gestion : CCAS de Lectoure","8h30 – 12h / 13h30 – 17h","8h30 – 12h / 13h30 – 17h","8h30 – 12h / 13h30 – 17h","8h30 – 12h / 13h30 – 17h","8h30 – 12h / 13h30 – 17h",,,"43.933522","0.626401","2 Cours Gambetta 32700 Lectoure","0.94","32700","Lectoure","32208"
"33","Espace France Services de Sainte Foy la Grande","12 boulevard Charles Garrau",,,"33220","SAINTE FOY LA GRANDE",,,,,,,,,,"44.839036","0.219476","12 Boulevard Charles Garrau 33220 Sainte-Foy-la-Grande","0.94","33220","Sainte-Foy-la-Grande","33402"
"33","Espace France Services de RAUZAN","11 grand rue",,,"33420","RAUZAN","La Poste",,,,,,,,,"44.779665","-0.124905","11 Grande Rue 33420 Rauzan","0.83","33420","Rauzan","33350"
"33","Espace France Services de Cussac Fort Médoc","34, avenue du haut médoc",,,"33460","CUSSAC FORT MEDOC",,,,,,,,,,"45.114496","-0.73088","34 Avenue du Haut Médoc 33460 Cussac-Fort-Médoc","0.94","33460","Cussac-Fort-Médoc","33146"
"33","Plateforme services publics ste Eulalie","1 pl CH de Gaulle",,,"33560","STE EULALIE",,,,,,,,,,"44.908396","-0.473335","1 Place de Gaulle 33560 Sainte-Eulalie","0.66","33560","Sainte-Eulalie","33397"
"33","Espace France Services de PESSAC","Rue de l'Horloge",,,"33600","PESSAC",,,,,,,,,,"44.791606","-0.628367","Rue de l'Horloge 33600 Pessac","0.96","33600","Pessac","33318"
"33","Maison France Services LACANAU","3 Rue de l'Aiguillonne",,,"33680","LACANAU ",,,,,,,,,,"44.978789","-1.073617","3 Rue de l'Aiguillonne 33680 Lacanau","0.95","33680","Lacanau","33214"
"33","Espace France Services de Captieux","Place du 8 mai 1945",,,"33840","CAPTIEUX",,,,,,,,,,"44.291757","-0.261174","Place du 8 Mai 1945 33840 Captieux","0.94","33840","Captieux","33095"
"34","MFS itinérante MSA","581 avenue Georges Méliès","Itinerante",,"34000","Montpellier","Opérateur","MSA","9h45-12h15/ 13h30-16h","9h45-12h15/ 13h30-16h","9h45-12h15/ 13h30-16h","9h45-12h15/ 13h30-16h","9h45-12h15/ 13h30-16h",,"Oui","43.605859","3.920475","581 Rue Georges Méliès 34000 Montpellier","0.67","34000","Montpellier","34172"
"34","MFS Hérault Méditerranée","Avenue des sergents",,,"34300","AGDE","Collectivité ","Agglomération Hérault Méditerranée","9h-12h30 /13h30-17h","9h-12h30 /13h30-17h","9h-12h30 /13h30-17h","9h-12h30 /13h30-17h","9h-12h30 /13h30-17h",,"Oui","43.280883","3.514681","Avenue des Sergents 34300 Agde","0.95","34300","Agde","34003"
"34","bedarieux","Rue Louis Baisse",,,"34310","CAPESTANG",,,,,,,,,,"43.327961","3.045639","Rue Louis Baisse 34310 Capestang","0.94","34310","Capestang","34052"
"34","MFS Capestang","6 place Ferrer",,,"34310","CAPESTANG","Collectivité ","CC sud Hérault","8h30 – 12h/ 13h00 – 17h30","8h30 – 12h/ 13h30 – 17h30","13h00 -17h30","8h30 – 12h/ 13h00 – 17h30","8h30 – 12h/ 13h00 – 17h30",,"Oui","43.32748","3.04669","6 Place Ferrer 34310 Capestang","0.94","34310","Capestang","34052"
"34","Espace France Services Sérignan ","146 avenue de la plage","pôle social",,"34410","SÉRIGNAN","Collectivité","Mairie de Sérignan","9h – 12h / 14h – 18h","9h – 12h / 14h – 18h","9h – 12h / 14h – 18h","9h – 12h / 14h – 18h","9h – 12h / 14h – 17h00",,,"43.280237","3.280593","146 Avenue de la Plage 34410 Sérignan","0.72","34410","Sérignan","34299"
"34","Espace France Services avant monts ","27 bis avenue de la république",,,"34490","MURVIEL LES BÉZIERS","Collectivité","CC les avants monts","9h – 16h30","9h - 11h30 / 14h30 – 16h30","9h - 11h30 / 14h30 – 16h30","9h - 11h30 / 14h30 – 18h30","9h – 11h30",,,"43.433641","3.148763","27 bis Avenue de la Republique 34490 Murviel-lès-Béziers","0.94","34490","Murviel-lès-Béziers","34178"
"34","MFS lodevois et larzac","1 Place Capitaine Francis Morand",,,"34700","LODEVE ","Collectivité","CC du lodévois et larzac","8h 30- 12h / 13h30 – 17h30","8h 30- 12h / 13h30 – 17h30","8h 30- 12h / 13h30 – 17h30","8h 30- 12h / 13h30 – 17h30",,,,"43.732037","3.316843","1 Place Capitaine Francis Morand 34700 Lodève","0.95","34700","Lodève","34142"
"35","PIMMS MFS","2 rue du Sous-Lieutenant Yves-Berger",,,"35000","RENNES","PIMMS","PIMMS Médiation Métropole Rennes","9h-12h30 / 14h-17h15","14h-17h15","9h-12h30 / 14h-17h15","14h-17h15","9h-12h30 / 14h-17h15",,,"48.088114","-1.673817","2 Rue du Sous-lieutenant Yves Berger 35200 Rennes","0.89","35200","Rennes","35238"
"35","MFS de la communauté de communes Bretagne Romantique","3 rue de la mairie",,,"35270","COMBOURG","Collectivité","communauté de communes Bretagne Romantique","9h - 12h / 14h – 17h","9h - 12h / 14h – 17h","9h - 12h / 14h – 17h","9h - 12h / 14h – 17h","9h – 12h",,,"48.409673","-1.752491","3 Rue de la Mairie 35270 Combourg","0.95","35270","Combourg","35085"
"35","MFS de la communauté de communes de Saint-Méen-Montauban","22 rue de Gaël",,,"35290","SAINT-MEEN-LE-GRAND","Collectivité","communauté de communes St-Méen-Montauban","8h30-12h30","8h30-12h30 / 13h30-17h","8h30-18h","8h30-12h30 / 13h30-17h","8h30-12h30 / 13h30-17h","10h-13h (1er samedi du mois)",,"48.184266","-2.195907","22 Rue de Gaël 35290 Saint-Méen-le-Grand","0.95","35290","Saint-Méen-le-Grand","35297"
"35","MFS la Poste Sens de Bretagne","Place de la gare",,,"35490","SENS DE BRETAGNE","La Poste","La Poste de Sens de Bretagne",,"9h-12h / 14h30-17h30","9h-12h / 14h30-17h30","9h-12h / 14h30-17h30","9h-12h / 14h30-17h30","9h-12h",,"48.334503","-1.537716","Place de la Gare 35490 Sens-de-Bretagne","0.94","35490","Sens-de-Bretagne","35326"
"35","Espace France Services Point Accueil Emploi de Pipriac","36 rue de l’avenir",,,"35550","PIPRIAC","Association","iloz Maison de services et de l’emploi du Pays de Pipriac","9h-12h / 14h-17h","9h-18h30","9h-12h ","9h-12h ","9h-12h ",,,"47.809531","-1.934962","36 Rue de l'Avenir 35550 Pipriac","0.94","35550","Pipriac","35219"
"35","MFS la Poste Pleine-Fougères","Rue de Normandie",,,"35610","PLEINE-FOUGERES","La Poste","La Poste de Pleine-Fougères","14h-16h","9h-12h / 14h-16h","9h-12h / 14h-16h","9h-12h / 14h-16h","9h-12h / 14h-16h","9h-12h",,"48.53367","-1.563607","Rue de Normandie 35610 Pleine-Fougères","0.94","35610","Pleine-Fougères","35222"
"36","Espace France Services d’Aigurande","8 Rue Jean Marien Messant",,,"36140","AIGURANDE","Collectivité","Communauté de communes Marche Berrichonne","14h – 18h","8h15 - 12h15 / 14h – 18h","8h15 - 12h15 / 14h – 18h","8h15 - 12h15 / 14h – 18h","8h15 - 12h15 / 14h – 18h","8h15 – 12h15",,"46.431904","1.824752","8 Rue Jean Marien Messant 36140 Aigurande","0.94","36140","Aigurande","36001"
"36","Espace France Services de Vatan","Avenue de la Sentinelle",,,"36150","VATAN","Collectivité","Commune de Vatan","9h – 12h / 13h30 – 18h","9h – 12h","9h – 12h","9h – 12h","9h – 12h / 13h30 – 18h",,,"47.07872","1.813529","Avenue de la Sentinelle 36150 Vatan","0.94","36150","Vatan","36230"
"36","Espace France Services Brenne Box","1 Place Jean Moulin",,,"36290","MÉZIÈRES-EN-BRENNE","Collectivité","Cdc Brenne Box","9h – 12h / 14h – 17h","9h – 12h / 14h – 17h","14h – 17h","9h – 12h / 14h – 17h","14h – 17h",,,"46.819459","1.208957","1 Place Jean Moulin 36290 Mézières-en-Brenne","0.94","36290","Mézières-en-Brenne","36123"
"36","Espace France Services de Chaillac","5 Rue de la Poste",,,"36310","CHAILLAC","La Poste","LA POSTE","8h45 - 12h15 / 13h30 – 16h17","8h45 - 12h15 / 13h30 – 16h17","13h30 – 16h15","8h45 - 12h15 / 13h30 – 16h17","8h45 - 12h15 / 13h30 – 16h17","8h45 – 12h",,"46.434758","1.298115","5 Rue de la Poste 36310 Chaillac","0.94","36310","Chaillac","36035"
"36","Espace France Services de Valençay","11 Route de Faverolles",,,"36600","VALENÇAY","Opérateur","Cdc Ecueillé-Valencay + MSA","'-","8h30 – 12h / 13h – 17h","10h – 12h / 13h30 – 17h","8h30 – 12h / 13h – 17h","8h30 – 12h / 13h – 16h","10h – 12h / 14h – 16h",,"47.24932","1.542865","11 Route de Valencay 36600 La Vernelle","0.63","36600","La Vernelle","36233"
"37","Espace France Services Descartes","5, rue du vieux Marché","La Maison de la Tour",,"37160","DESCARTES","Collectivité","CC Loches Sud Touraine","9h-12h30 (avec rdv) 14h-16h30 (sans rdv)","Mardi sur RDV","Me 9h-12h30 (sans rdv) 14h-16h30 (rdv)","Je 9h-12h30 14h-16h30 (sans rdv)","Ve 9h-12h30/14h-16h30 ( sur RDV)",,,,,,,,,
"37","Espace France Services Montlouis-sur-Loire","1bis, rue de Boisdenier",,,"37270","MONTLOUIS-SUR-LOIRE","Collectivité","Ville de Montlouis-sur Loire","8h30-12h / 13h30-17h","8h30-12h / 13h30-17h","8h30-12h / 13h30-17h","8h30-12h","8h30-12h / 13h30-17h",,,"47.386925","0.823896","Rue de Boisdenier 37270 Montlouis-sur-Loire","0.85","37270","Montlouis-sur-Loire","37156"
"37","Espace France Services Descartes - Antenne de Preuilly-sur-Claise","1 place Jean Moulin",,,"37290","PREUILLY-SUR-CLAISE","Collectivité","CC Loches Sud Touraine",":Lundi : 9h-12h30","Mardi sur RDV","14h-16h30","fermé","Vendredi : 9h00-12h30/14h00-16h30",,,"46.863275","0.929281","Le Pouet 37290 Preuilly-sur-Claise","0.55","37290","Preuilly-sur-Claise","37189"
"37","Association RESOUDRE","4, rue Lavoisier",,,"37300","JOUÉ-LES-TOURS","Association","Association Résoudre","9h-12h / 13h-17h","9h-12h / 13h-17h","13h00-17h","9h-12h / 13h-17h","9h-12h / 13h-17h",,,"47.346935","0.660672","4 Rue Lavoisier 37300 Joué-lès-Tours","0.96","37300","Joué-lès-Tours","37122"
"37","Espace France Services Descartes Antenne du Grand Pressigny","1 bis place des Halles",,,"37350","Le Grand Pressigny","Collectivité","CC Loches Sud Touraine","fermé","Mardi sur RDV","fermé","Jeudi 9h-12h/14h-16h30 ( sans RDV)","fermé",,,"46.920551","0.803554","1 bis Place des Halles 37350 Le Grand-Pressigny","0.94","37350","Le Grand-Pressigny","37113"
"37","Espace France Services Sainte-Maure de Touraine","77 ave du Générale de Gaulle","Les Passerelles",,"37800","SAINTE-MAURE-DE-TOURAINE","Association","Association Relais Emploi","9h00 à 12h00 sans rendez-vous14h00 à 17h00 sur rendez-vous","9h00 à 12h00 sans rendez-vous14h00 à 17h00 sur rendez-vous","9h00 à 12h00 sans rendez-vous14h00 à 17h00 sur rendez-vous","9h00 à 12h00 sans rendez-vous14h00 à 17h00 sur rendez-vous","9h00 à 12h00 sans rendez-vous14h00 à 17h00 sur rendez-vous",,,"47.11289","0.616991","77 Avenue du Général de Gaulle 37800 Sainte-Maure-de-Touraine","0.69","37800","Sainte-Maure-de-Touraine","37226"
"38","PIMMS de Grenoble","97 Galerie de l'Arlequin",,,"38100","GRENOBLE","PIMMS","PIMMS","13-17","9-12/13-17","9-12/13-17","9-12/13-17","9-12","10-12 :30",,"45.164079","5.732875","97 Galerie de l'Arlequin 38100 Grenoble","0.96","38100","Grenoble","38185"
"38","St Marcellin","2 bd du Riondel et 2 av du Collège",,,"38160","SAINT-MARCELLIN","Opérateur","MSA et Mairie de St Marcellin","8:30-12/13:30-16:30","8:30-12/13:30-16:30","8:30-12/13:30-16:30","8:30-12","8:30-12/13:30-16:30","fermé",,"45.154361","5.319521","2 Avenue du Collége 38160 Saint-Marcellin","0.57","38160","Saint-Marcellin","38416"
"38","Pont de Beauvoisin","82 chemin des Pâquerettes",,,"38480","PONT DE BEAUVOISIN","Collectivité","CC Vals du Dauphiné","9-12 :30/13 :30-17","9-12 :30/13 :30-17","9-12 :30/13 :30-17","9-12 :30/13 :30-18 :30","9-12 :30","fermé",,"45.536474","5.646368","82 Chemin des Pâquerettes 38480 Le Pont-de-Beauvoisin","0.89","38480","Le Pont-de-Beauvoisin","38315"
"38","Morestel","84 Place du 8 Mai 1945",,,"38510","MORESTEL","Collectivité","CC Balcons du Dauphiné","8 :30-12/13:30-17","8 :30-12/13:30-17","8 :30-12/13:30-17","8 :30-12/13:30-17","8 :30-12/13:30-17","fermé",,"45.673981","5.471211","84 Place du 8 Mai 1945 38510 Morestel","0.95","38510","Morestel","38261"
"38","Bourg d’Oisans","Avenue Aristide Briand",,,"38520","LE BOURG-D'OISANS","Collectivité","CC Oisans","8 :30-12/13 :30-17","8 :30-12/13 :30-17","8 :30-12/13-17","8 :30-12/13 :30-17","8 :30-12","fermé",,"45.054724","6.032089","Avenue Aristide Briand 38520 Le Bourg-d'Oisans","0.94","38520","Le Bourg-d'Oisans","38052"
"38","Monestier de Clermont","Grand Rue",,,"38650","MONESTIER DE CLERMONT","La Poste","La Poste","fermé","8 :30-12/13 :30-16","9-12/13 :30-16","8 :30-12/13 :30-16","8 :30-12/13 :30-16","8 :30-12",,"44.926398","5.63831","Grand Rue 38650 Monestier-de-Clermont","0.94","38650","Monestier-de-Clermont","38242"
"38","PIMMS Pont de Claix","12 Avenue Charles de Gaulle",,,"38800","LE PONT-DE-CLAIX","PIMMS","PIMMS","13-17","9-12/13-17","9-12/13-17","9-12/13-17","9-12","fermé",,"45.136409","5.709063","12 Avenue Charles de Gaulle 38800 Le Pont-de-Claix","0.95","38800","Le Pont-de-Claix","38317"
"39","Espace France Services de Salins","La Tour - ZA les Mélincols",,,"39110","SALINS LES BAINS",,,,,,,,,,"46.949348","5.861427","Les Melincols Ouest 39110 Salins-les-Bains","0.68","39110","Salins-les-Bains","39500"
"39","Espace France Services de Ounans","11 route de Salins",,,"39380","OUNANS",,,,,,,,,,"46.994091","5.668356","11 Route de Salins 39380 Ounans","0.93","39380","Ounans","39399"
"39","Espace France Services d'Arbois","10 rue de l'hôtel de ville",,,"39600","ARBOIS   ",,,,,,,,,,"46.902668","5.772358","10 Rue de l'Hôtel de Ville 39600 Arbois","0.94","39600","Arbois","39013"
"40","Espace France Services de Peyrehorade","156 route de Mahoumic",,,"40300","PEYREHORADE",,,,,,,,,,"43.55478","-1.122575","156 Route de Mahoumic 40300 Peyrehorade","0.94","40300","Peyrehorade","40224"
"40","Espace France Services de Geaune","2 rue de la Poste",,,"40320","GEAUNE","La Poste",,,,,,,,,"43.640403","-0.379791","2 Rue de la Poste 40320 Geaune","0.94","40320","Geaune","40110"
"40","Espace France Services de Rion-des-Landes","144 avenue Frédéric Bastiat",,,"40370","RION-DES-LANDES","La Poste",,,,,,,,,"43.933235","-0.922735","144 Avenue Frédéric Bastiat 40370 Rion-des-Landes","0.94","40370","Rion-des-Landes","40243"
"40","Espace France Services d’Aire-sur-l’Adour","4 rue René Méricam ",,,"40800","AIRE-SUR-L’ADOUR",,,,,,,,,,"43.700463","-0.2611","4 Rue René Méricam 40800 Aire-sur-l'Adour","0.95","40800","Aire-sur-l'Adour","40001"
"41","BLOIS","11 Place Rene Coty ",,,"41000","BLOIS",,,,,,,,,,"47.593693","1.318363","11 Place Rene Coty 41000 Blois","0.96","41000","Blois","41018"
"41","MONDOUBLEAU","3 Allée de la Gare",,,"41170","MONDOUBLEAU",,,,,,,,,,"47.984097","0.892329","3 Allée de la Gare 41170 Mondoubleau","0.94","41170","Mondoubleau","41143"
"41","SALBRIS","50 Boulevard de la République",,,"41300","SALBRIS",,,,,,,,,,"47.424674","2.053334","50 Boulevard de la République 41300 Salbris","0.95","41300","Salbris","41232"
"41","MER","9 Route Nationale",,,"41500","MER",,,,,,,,,,"47.699867","1.508583","9 Route Nationale 41500 Mer","0.95","41500","Mer","41136"
"43","Espace France Services de Craponne-sur-Arzon","Place de la Gare",,,"43500","CRAPONNE SUR ARZON","Collectivité","Communauté d’agglomération du Puy-en-Velay","Accueil sans RDV 9h00 – 12h00

Accueil sur RDV 8h30 – 09h00 / 12h00 – 17h30
","Accueil sans RDV 9h00 – 16h30

Accueil sur RDV 8h30 – 09h00 / 16h30 – 17h30","Accueil sans RDV 9h00 – 12h00 / 14h00 – 16h30

Accueil sur RDV 8h30 – 9h00 / 12h00-14h00/ 16h30 – 17h30","Accueil sans RDV 9h00 – 12h00 / 14h00 – 16h30

Accueil sur RDV 8h30 – 09h00 / 12h00-14h00/ 16h30-17H30
","Accueil sans RDV 9h00 – 12h00

Accueil sur RDV 8h30 – 09h00 / 12h00-17h30
",,,"45.333886","3.851406","Place de la Gare 43500 Craponne-sur-Arzon","0.94","43500","Craponne-sur-Arzon","43080"
"43","Espace France Services de Vorey-sur-Arzon","Place de la Mairie",,,"43800","VOREY/ARZON","Opérateur","La Poste","9h00 – 12h00 / 14h00 – 16h45","9h00 – 11h30 / 14h45 – 16h45","9h00 – 12h00 / 14h00 – 16h45","9h00 – 12h00 / 14h00 – 16h45","9h00 – 12h00 / 14h00 – 16h45","9h00 – 12h00",,"45.186457","3.909146","Place de la Mairie 43800 Vorey","0.78","43800","Vorey","43267"
"43","Espace France Services de Vorey-sur-Arzon","Place de la Mairie",,,"43800","VOREY/ARZON","La Poste",,,,,,,,,"45.186457","3.909146","Place de la Mairie 43800 Vorey","0.78","43800","Vorey","43267"
"44","Espace France Services de Riaillé","182, rue du Cèdre",,,"44440","RIAILLÉ",,,,,,,,,,"47.517779","-1.294659","182 Rue du Cèdre 44440 Riaillé","0.94","44440","Riaillé","44144"
"44","Espace France Services de Derval","14, rue de la Garlais",,,"44590","DERVAL",,,,,,,,,,"47.668489","-1.670259","14 Rue de la Garlais 44590 Derval","0.94","44590","Derval","44051"
"45","Espace France Services de la Maison du département de l’ouest Orléanais","44 Rue de Chateaudun",,,"45130","MEUNG-SUR-LOIRE","Collectivité","Conseil départemental","8h30 – 12h00/13h30 – 16h30 sur RDV","8h30 – 12h00/13h30 – 16h30 sur RDV","8h30 – 12h00/13h30 – 16h30 sur RDV","8h30 – 12h00/13h30 – 16h30 sur RDV","8h30 – 12h00/13h30 – 16h30 sur RDV",,,"47.830971","1.681991","44 Rue de Chateaudun 45130 Meung-sur-Loire","0.95","45130","Meung-sur-Loire","45203"
"45","Espace France Services du Pimms du Plateau","26 Rue de la Pontonnerie",,,"45200","MONTARGIS","PIMMS","Union Nationale des PIMMS","9h - 12h30 / 13h00 – 17h30","9h - 12h30 / 13h00 – 17h30","9h - 12h30 / 13h00 – 17h30","9h - 12h30 / 13h00 – 17h30","9h - 12h30 / 13h00 – 17h30",,,"48.000424","2.726123","26 Rue de la Pontonnerie 45200 Montargis","0.95","45200","Montargis","45208"
"45","Espace France Services du Beaunois","3 bis Rue des Déportés",,,"45340","BEAUNE-LA-ROLANDE","Collectivité","CC du pithiverais Gâtinais","9h - 12h30 / 13h30 – 17h30","9h - 12h30 / 13h00 – 17h30","9h - 12h30 / 13h00 – 17h30","9h - 12h30 / 13h00 – 17h30","9h - 12h30 / 13h30 – 16h30",,,"48.071606","2.435226","3 bis Rue des Déportés 45340 Beaune-la-Rolande","0.94","45340","Beaune-la-Rolande","45030"
"46","Communauté d'aglomération Grand Cahors","72 rue du Président Wilson ","Hôtel Wilson",,"46000","CAHORS",,,,,,,,,,"44.446218","1.439927","72 Rue du President Wilson 46000 Cahors","0.72","46000","Cahors","46042"
"46","Association Ségala Limargue","Pôle Multiculturel Communautaire 81 Rue Principale ",,,"46120","LEYME",,,,,,,,,,"44.78526","1.900465","81 Rue Principale 46120 Leyme","0.45","46120","Leyme","46170"
"46","Commune de Cajarc","40 Boulevard du Tour de Ville ",,,"46160","CAJARC",,,,,,,,,,"44.48475","1.843145","40 Boulevard du Tour de Ville 46160 Cajarc","0.94","46160","Cajarc","46045"
"46","Communauté de communes du Causse de Labastide-Murat","8 Grande Rue du Causse ",,,"46240","LABASTIDE MURAT",,,,,,,,,,"44.647463","1.567651","8 Grande Rue du Causse 46240 Cœur de Causse","0.6","46240","Cœur de Causse","46138"
"47","Espace France Services  de Duras","14, boulevard Jean Brisseau",,,"47120","DURAS","Collectivité","Communauté de communes du Pays de Duras","9h – 12h 30 / 13h 30 - 18h","9h – 12h 30 / 13h 30 - 18h","9h – 12h 30 / 14h – 17h","9h – 12h 30 / 13h 30 - 18h","9h – 12h 30 / 14h – 17h","fermé",,"44.677266","0.182852","14 Boulevard Jean Brisseau 47120 Duras","0.94","47120","Duras","47086"
"47","Espace France Services de Laplume  ","Place du Foirail","Bureau de Poste",,"47310","LAPLUME","La Poste","La Poste  ","9h -11h 30 / 14 h – 16 h 45","9h -11h 30 / 14 h – 16 h 45","9h -11h 30 / 14 h – 16 h 45","9h -11h 30 / 14 h – 16 h 45","9h -11h 30 / 14 h – 16 h 45","9 h 30-12 h ",,"44.111239","0.532267","Place du Château 47310 Laplume","0.5","47310","Laplume","47137"
"47","Espace France Services de Nérac","10 place Aristide Briand ","Centre Haussmann",,"47600","NÉRAC","Collectivité","Communauté de communes Albret Communauté ","9h -12h / 14 h – 17 h ","9h -12h / 14 h – 17 h ","9h -12h / 14 h – 17 h ","9 h -  12 h","9 h -  12 h","fermé","Oui","44.137012","0.338267","10 Place Aristide Briand 47600 Nérac","0.65","47600","Nérac","47195"
"48","Espace France Services de Marvejols","6 Rue Victor Cordesse ",,,"48100","MARVEJOLS","Collectivité","CC du Gévaudan","de 8h30 à 12h et de 13h30 à 17h30","de 8h30 à 12h et de 13h30 à 17h30","de 8h30 à 12h et de 13h30 à 17h30","de 8h30 à 12h et de 13h30 à 17h30","de 8h30 à 12h et de 13h30 à 17h30",,,"44.553288","3.2918","6 Rue Victor Cordesse 48100 Marvejols","0.95","48100","Marvejols","48092"
"48","Espace France Services  de Saint-Chély d’Apcher","Rue de l'ancien hôpital",,,"48200","SAINT-CHÉLY D’APCHER","Collectivité","Communauté de communes des Terres d’APcher – Margeride-Aubrac","8h30-12h  13h30-17h30","8h30-12h  13h30-17h30","8h30-12h  13h30-17h30","8h30-12h  13h30-17h30","8h30-12h  13h30-17h",,,"44.809775","3.285734","Rue de l'Avenir 48200 Saint-Chély-d'Apcher","0.64","48200","Saint-Chély-d'Apcher","48140"
"48","Espace France Services  du Pont de Montvert Sud Mont-Lozère","Bâtiment de la mairie ",,,"48220","LE PONT DE MONVERT SUD MONT LOZÈRE","Collectivité","CC des Cévennes au Mont Lozère","9h30-12h  AM sur RDV","9h30-12h  AM sur RDV","9h30-12h  ","9h30-12h  14h-20h","9h30-12h  ",,,"44.334638","3.896249","Place de l'Ancienne Mairie 48220 Vialas","0.28","48220","Vialas","48194"
"48","Espace France Services  de Langogne","1 Quai du Langouyrou ",,,"48300","LANGOGNE","Collectivité","Communauté communes du Haut Allier","8h45 à 12h et 13h45 à 16h45 – les partenaires ont aussi accès aux bureaux en dehors des heures d’ouverture","8h45 à 12h et 13h45 à 16h45 – les partenaires ont aussi accès aux bureaux en dehors des heures d’ouverture","8h45 à 12h et 13h45 à 16h45 – les partenaires ont aussi accès aux bureaux en dehors des heures d’ouverture","8h45 à 12h et 13h45 à 16h45 – les partenaires ont aussi accès aux bureaux en dehors des heures d’ouverture","8h45 à 12h et 13h45 à 16h45 – les partenaires ont aussi accès aux bureaux en dehors des heures d’ouverture",,,"44.725711","3.857039","1 Quai du Langouyrou 48300 Langogne","0.94","48300","Langogne","48080"
"49","France Services de Chemillé-en-Anjou","5 Rue de la Gabardière",,,"49120","CHEMILLE-EN-ANJOU","Association","Centre social et socio culturel du chemillois","9h -12h / 14h - 18h","9h -12h / 14h - 18h","9h -12h / 14h - 18h","9h -12h / 14h - 18h","9h -12h / 14h - 18h","9h – 12h 30  ",,"47.216912","-0.727681","5 Rue de la Gabardière 49120 Chemillé-en-Anjou","0.95","49120","Chemillé-en-Anjou","49092"
"49","France-Services Loire Layon (St Georges)","5, rue de Savennières",,,"49170","SAINT GEORGES SUR LOIRE","Association","Centre social intercommunal l’Atelier","9h – 12h30 / 13h30 – 18 h","9h – 12h30 / 13h30 – 17h30","9h – 12h30 / 13h30 – 17h30","9h – 12h30 / 13h30 – 17h30","9h – 12h30 / 13h30 – 17h30",,,"47.406964","-0.757777","5 Rue de Savennières 49170 Saint-Georges-sur-Loire","0.94","49170","Saint-Georges-sur-Loire","49283"
"49","France Services de Montreuil-Bellay","139 Rue d'Anjou",,,"49260","MONTREUIL-BELLAY","Association","Centre social et culturel intercommunal Roland Charrier","9h - 12h / 13h30 – 17h30","9h - 12h / 13h30 – 17h30","9h - 12h / 13h30 – 17h30","9h - 12h / 13h30 – 17h30","9h – 12h / 13h30 – 16h",,,"47.127865","-0.143755","139 Rue d'Anjou 49260 Montreuil-Bellay","0.94","49260","Montreuil-Bellay","49215"
"49","France-Services Loire Layon (Chalonnes)","4 Rue des Poilus",,,"49290","CHALONNES SUR LOIRE","Collectivité","CCAS de Chalonnes sur Loire","9h - 12h / 14h – 17h","9h - 12h / 14h – 17h","9h - 12h","9h - 12h / 14h – 17h","9h - 12h",,,"47.35206","-0.761805","4 Rue des Poilus 49290 Chalonnes-sur-Loire","0.95","49290","Chalonnes-sur-Loire","49063"
"49","France Services Vallée du Haut Anjou","2 Rue des Fontaines",,,"49330","LES HAUTS D’ANJOU","Association","Communauté de communes des Vallées du Haut Anjou","9h -12h15 / 14h – 17h","9h -12h15 / 14h – 17h","9h -12h15 / 14h – 17h","9h -12h15 / 14h – 17h","9h -12h15 / 14h – 17h",,,"47.680715","-0.49429","2 Rue des Fontaines 49330 Les Hauts-d'Anjou","0.94","49330","Les Hauts-d'Anjou","49080"
"49","France Services d’Orée d’Anjou","20 rue JFA Chenouard",,,"49530","OREE D’ANJOU","Association","Centre socioculturel Rives de Loire","9h -12h15 / 14h - 18h","9h -12h15 / 14h – 19h","9h -12h15 / 14h - 18h","9h -12h15 / 14h - 18h","9h -12h15 / 14h - 18h",,,"47.339223","-1.2066","20 Rue Jfa Chenouard (drain) 49530 Orée d'Anjou","0.83","49530","Orée d'Anjou","49069"
"49","France Services de Beaupréau-en-Mauges","10 Rue du sous Préfet Barré",,,"49600","BEAUPREAU-EN-MAUGES","Association","Centre social Evre et Mauges","9h - 12h / 14h - 18h","9h - 12h / 14h - 18h","9h - 12h / 14h - 18h","9h - 12h / 14h - 18h","9h - 12h / 14h - 18h","9h - 12h  sauf vacances scolaires",,"47.20339","-0.993564","10 Rue du sous Préfet Barré 49600 Beaupréau-en-Mauges","0.95","49600","Beaupréau-en-Mauges","49023"
"50","Sourdeval","13 c Rue de Tinchebray",,,"50150","SOURDEVAL","Collectivité","CA Mont-Saint-Michel-Normandie","9h- 12h/ 13h30 – 17h","9h- 12h/ 13h30 – 17h","13h30 – 17h","9h- 12h/ 13h30 – 17h","9h – 12h",,,"48.725295","-0.917687","13 c Rue de Tinchebray 50150 Sourdeval","0.94","50150","Sourdeval","50582"
"50","Brecey","7 bis Rue Louis René le Berriays",,,"50370","BRECEY","Collectivité","CA Mont-Saint-Michel-Normandie","9h- 12h/ 13h30 – 17h","9h- 12h/ 13h30 – 17h","13h30 – 17h","9h- 12h/ 13h30 – 17h","9h – 12h",,,"48.7238","-1.169096","7 bis Rue Louis René le Berriays 50370 Brécey","0.94","50370","Brécey","50074"
"50","Lessay","11 Place Saint Cloud",,,"50430","LESSAY","Association","Maison du Pays de Lessay","8h30 - 12h30 / 13h30 – 17h30","8h30 - 12h30 / 13h30 – 17h30","8h30 - 12h30 / 13h30 – 17h30","8h30 - 12h30 / 13h30 – 17h30","8h30 - 12h30 / 13h30 – 16h30",,,"49.218827","-1.533783","11 Place Saint Cloud 50430 Lessay","0.94","50430","Lessay","50267"
"50","Carentan","28 Rue de la 101e Airborne",,,"50500","CARENTAN-LES-MARAIS","Collectivité","CDC de la Baie du Cotentin","8h30 - 12h30 / 13h30 – 17h","8h30 - 12h30 / 13h30 – 17h","8h30 - 12h30 / 13h30 – 17h","8h30 - 12h30 / 13h30 – 17h","8h30 - 12h30 / 13h30 – 17h",,,"49.304725","-1.250528","28 Rue de la 101e Airborne 50500 Carentan-les-Marais","0.95","50500","Carentan-les-Marais","50099"
"50","St Hilaire du Harcouet","65 Place Louis Delaporte",,,"50600","ST HILAIRE DU HARCOUET","Collectivité","CA Mont-Saint-Michel-Normandie","8h30- 12h30/ 14h – 17h","8h30- 12h30/ 14h – 17h","8h30- 12h30/ 14h – 17h","8h30- 12h30/ 14h – 17h","8h30- 12h30/ 14h – 17h",,,"48.578859","-1.090641","65 Place Louis Delaporte 50600 Saint-Hilaire-du-Harcouët","0.87","50600","Saint-Hilaire-du-Harcouët","50484"
"50","Le teilleul","32 Rue Beauregard",,,"50640","LE TEILLEUL","Collectivité","CA Mont-Saint-Michel-Normandie","9h- 12h/ 13h30 – 17h","9h- 12h/ 13h30 – 17h","13h30 – 17h","9h- 12h/ 13h30 – 17h","9h – 12h",,,"48.538517","-0.87283","32 Rue Beauregard 50640 Le Teilleul","0.94","50640","Le Teilleul","50591"
"50","Valognes","22 Rue de Poterie",,,"50700","VALOGNES","Collectivité","CA du Cotentin","8h30- 12h30/ 13h30 – 17h30","8h30- 12h30/ 13h30 – 17h30","8h30- 12h30/ 13h30 – 17h30","8h30- 12h30/ 13h30 – 17h30","8h30- 12h30/ 13h30 – 17h30",,,"49.510031","-1.469319","22 Rue de Poterie 50700 Valognes","0.95","50700","Valognes","50615"
"50","Villedieu","11 Rue Pierre Paris",,,"50800","VILLEDIEU-LES-POÊLES-ROUFFIGNY","Collectivité","CDC Villedieu Intercom","8h30 - 12h/ 13h30 – 17h30","8h30 - 12h/ 13h30 – 17h30","8h30 - 12h/ 13h30 – 17h30","8h30 - 12h30 / 13h30 – 17h","8h30 - 12h/ 13h30 – 17h30",,,"48.835873","-1.221701","11 Rue Pierre Paris 50800 Villedieu-les-Poêles-Rouffigny","0.94","50800","Villedieu-les-Poêles-Rouffigny","50639"
"51","ESPACE FRANCE SERVICES de Jonchery sur Vesle","Rue du Marche",,,"51140","JONCHERY SUR VESLE","Association","Familles Rurales de Jonchery sur Vesle","13h30 – 18h","13h30 – 19h","9h – 12h / 13h30 – 18h","9h – 12h ","13h30 – 17h ","10h – 12h ",,"49.286891","3.813739","Rue du Marche 51140 Jonchery-sur-Vesle","0.94","51140","Jonchery-sur-Vesle","51308"
"51","ESPACE FRANCE SERVICES de Bassuet","1 Rue Ernest Haudos",,,"51300","BASSUET","Collectivité","Communauté de communes des Côtes de Champagne et Val de Saulx","8h30 – 12 h + Permanence à Pargny-sur-Saulx : 13h30 – 17h","Permanence à Pargny-sur-Saulx : 8h30 – 12h / 13h30 – 17h","9h – 12h / 13h45 – 17h","Permanence à Sermaize-les-Bains : 8h30 – 12h / 13h30 – 17h","Permanence à Sermaize-les-Bains : 8h30 – 12h ",,,"48.797305","4.667419","1 Rue Ernest Haudos 51300 Bassuet","0.93","51300","Bassuet","51040"
"51","Espace FRANCE SERVICES des Paysages de la Champagne","3 Rue du Marechal Foch",,,"51700","DORMANS","Collectivité","Communauté de communes des Paysages de la Champagne","9h - 12h / 13h30 – 17h","9h - 12h / 13h30 – 17h","Permanence à La Chaussée de Damery : 9h – 12h ","9h - 12h / 13h30 – 17h + Permanence à Châtillon sur Marne : 9h30 – 12h","9h - 12h / 13h30 – 17h + Permanence à Montmort-Lucy : 14 h – 17h ",,,"49.077037","3.642586","3 Rue du Marechal Foch 51700 Dormans","0.94","51700","Dormans","51217"
"51","ESPACE FRANCE SERVICES de l’Argonne Champenoise","50 Avenue de Pertison",,,"51800","SAINTE-MENEHOULD","Collectivité","Communauté de communes de l’Argonne Champenoise ","13h30 – 17h + Permanence à Ville-sur-Tourbe de 8h30 – 10 h et à Vienne-le-Château : 10h30 -12h","8h30 – 17h30","8h30 – 12h","13h30 – 17h30","8h30 17h30 + Permanence à Givry-en-Argonne : 8h30 -12h ",,,"49.095895","4.914458","50 Avenue de Pertison 51800 Sainte-Menehould","0.95","51800","Sainte-Menehould","51507"
"52","Espace France Services de Bologne","1-3 rue de Chaumont",,,"52310","BOLOGNE",,,,,,,,,,"48.186626","5.108716","3 Rue de Chaumont 52310 Bologne","0.88","52310","Bologne","52058"
"53","Espace France Services de Gorron","Place de la Mairie",,,"53120","GORRON","Collectivité","Communauté de communes du Bocage Mayennais","8H30 – 12h15 / 13h30 -17h30","8H30 – 12h15 / 13h30 -17h30","8H30 – 12h15 / 13h30 -17h30","8H30 – 12h15 / 13h30 -17h30","8H30 – 12h15 / 13h30 -17h30","/",,"48.411497","-0.813603","Rue de la Mairie 53120 Gorron","0.77","53120","Gorron","53107"
"53","Espace France Services de Pré-en-Pail-Saint-Samson","1 Rue de la Corniche de Pail",,,"53140","PRE-EN-PAIL-SAINT-SAMSON","Collectivité","Communauté de communes du Mont des Avaloirs","9h00 – 12h30 / 13h30 – 17h30","9h00 – 12h30 / 13h30 – 17h30","9h00 – 12h30 / 13h30 – 17h30","9h00 – 12h30 / 13h30 – 17h30","9h00 – 12h30 / 13h30 – 16h30","/",,"48.457247","-0.2069","1 Rue de la Corniche de Pail 53140 Pré-en-Pail-Saint-Samson","0.94","53140","Pré-en-Pail-Saint-Samson","53185"
"53","Espace France Services de Meslay-du-Maine","1 Voie de la Guiternière ",,,"53170","MESLAY-DU-MAINE","Collectivité","Communauté de communes du Pays de Meslay-Grez","9h00 – 12h00 / 13h30 – 17h30","9h00 – 12h00 / 13h30 – 17h30","9h00 – 12h00 / 13h30 – 17h30","9h00 – 12h00 / 13h30 – 17h30","9h00 – 12h00 / 13h30 – 17h30","/",,"47.949589","-0.542033","1 Voie de la Guiternière 53170 Meslay-du-Maine","0.94","53170","Meslay-du-Maine","53152"
"53","Espace France Services de Ambrières-les-Vallées","6 Place du Château ",,,"53300","AMBRIÈRES-LES-VALLÉES","Collectivité","Communauté de communes du Bocage Mayennais","14h00  – 17h00","9h00 – 12h00 / 14h00 – 17h00","9h00- 12h00 / 14h00– 17h00","9h00- 12h00 / 14h00– 17h00","9h00- 12h00 / 14h00– 17h00","/",,"48.403482","-0.629826","6 Place du Château 53300 Ambrières-les-Vallées","0.94","53300","Ambrières-les-Vallées","53003"
"53","Espace France Services de Loiron","Maison de Pays Espace Tertiel ",,,"53320","LOIRON-RUILLÉ","Collectivité","Laval-Agglo","9h00 – 12h00 / 13h30 – 17h30","9h00 – 12h00 / 13h30 – 17h30","9h00 – 12h00 / 13h30 – 17h30","9h00 – 12h00 / 13h30 – 17h30","9h00 – 12h00 / 13h30 – 17h00","/",,"48.05874","-0.941676","Rue des Eglantiers 53320 Loiron-Ruillé","0.48","53320","Loiron-Ruillé","53137"
"53","Espace France Services de Craon","29 Rue de la Libération",,,"53400","CRAON","Collectivité","Communauté de communes du Pays de Craon","9h00 – 12h30 / 13h30 – 17h30","9h00– 12h30 / 13h30 – 17h30","9h00 – 12h30 / 13h30 – 17h30","9h00 – 12h30 / 13h30 – 17h30","9h00 – 12h30 / 13h30 – 17h30 ","/",,"47.849499","-0.955688","29 Rue de la Libération 53400 Craon","0.95","53400","Craon","53084"
"53","Espace France Services de l’Ernée","Parc de la Querminais BP28 ","Communauté de communes de l’Ernée",,"53500","ERNÉE","Collectivité","Communauté de de communes de l’Ernée","8h30 – 12h30 / 13h30 – 17h30","8h30 – 12h30 / 13h30 – 17h30","8h30 – 12h30 / 13h30 – 17h30","8h30 – 12h30 / 13h30 – 17h30","8h30 – 12h30 / 13h30 – 16h30","/",,"50.726722","2.739189","Rue de la Communauté de Communes 59270 Bailleul","0.43","59270","Bailleul","59043"
"53","Espace France Services de Villaines-la-Juhel","17 Boulevard du Général de Gaulle",,,"53700","VILAINES-LA-JUHEL","Collectivité","Communauté de communes du Mont des Avaloirs","8h30 -12h00 / 13h30 - 17h30","8h30 – 12h00 / 13h30 - 17h30","8h30 – 12h00 / 13h30 - 17h30","8h30 – 12h00 / 13h30 - 17h30","8h30 – 12h00 / 13h30 - 17h30","/",,"48.339399","-0.281197","17 Boulevard du Général de Gaulle 53700 Villaines-la-Juhel","0.93","53700","Villaines-la-Juhel","53271"
"54","Espace France Services de Seille et Grand Couronné","47 rue Saint Barthélémy",,,"54280","CHAMPENOUX","Collectivité","ComCom de Seille et Grand Couronné","8h30-12h30 / 13h30-16h30","8h30-12h30 / 13h30-16h30","9h00-12h00","8h30-12h30 / 13h30-16h30","8h30-12h30 / 13h30-16h30",,,"48.742356","6.347801","47 Rue Saint-barthélémy 54280 Champenoux","0.94","54280","Champenoux","54113"
"54","Espace France Services de Mont sur Meurthe","3 rue de la Meurthe",,,"54360","MONT-SUR-MEURTHE","Association","Association Familles Rurales ","09h/12h et 13h30/17h30","13h30/17h30","08h30/13h30","08h30/12h30 et 13h30/18h00","08h30/12h30 et 13h30/17h30","Ouverture possible sur RDV le samedi",,"48.555451","6.441162","3 Rue de la Meurthe 54360 Mont-sur-Meurthe","0.94","54360","Mont-sur-Meurthe","54383"
"54","Espace France Services de Einville et Environs","35 grande rue",,,"54370","EINVILLE-AU-JARD","Association","Familles Rurales Einville et Environs","8h30-12h / 13h - 17h30","13h – 17h30","8h30-12h","8h30-12h","13h-17h30",,,"48.655453","6.488118","35 Grande Rue 54370 Einville-au-Jard","0.94","54370","Einville-au-Jard","54176"
"54","Espace France Services du Grand Longwy","14 rue Stanislas ",,,"54400","LONGWY","PIMMS","Association","PIMMS du Gand Longwy","8h45-12h / 14h-16h45","rdv / 14h-16h45","8h45-12h / 14h-16h45","8h45-12h rdv / rdv","8h45-12h / 14h-16h45",,"49.524346","5.761761","14 Rue Stanislas 54400 Longwy","0.95","54400","Longwy","54323"
"54","Espace France Services de Mad & Moselle","2bis rue Henri Poulet ",,,"54470","THIAUCOURT-REGNIÉVILLE","Collectivité","ComCom Mad & Moselle","8h30-12h30 / 13h30-17h30","8h30-12h30 / 13h30-17h30","8h30-12h30 / 13h30-17h30","8h30-12h30 / 13h30-17h30 ; ouverture de certains services de 12h30 à 18h30","8h30-12h30 / 13h30-16h30","Ouverture de certains services de 9h à 12h",,"48.955716","5.866697","2 bis Rue Henri Poulet 54470 Thiaucourt-Regniéville","0.89","54470","Thiaucourt-Regniéville","54518"
"55","La poste Gondrecourt le Château","5, place de l’Hôtel de Ville",,,"55130","Gondrecourt le Château","La poste","La Poste","14h00 – 16h30","9h00 – 12h00 – 14h00 – 16h30","9h00 – 12h00","9h00 – 12h00 – 14h00 – 16h30","9h00 – 12h00 – 14h00 – 16h30","9h00 – 12h00",,"48.513088","5.506251","5 Place de l'Hotel de Ville 55130 Gondrecourt-le-Château","0.94","55130","Gondrecourt-le-Château","55215"
"55","Centre Social et Culturel d’Etain et sa région","25 rue des Ecoles",,,"55400","ETAIN","Association","Centre Social et Culturel","  13h30 - 18h00","9h00 – 12h00  -  13h30 - 18h00","9h00 – 12h00  -  13h30 - 18h00","9h00 – 12h00  -  13h30 - 18h00","9h00 – 12h00  -  13h30 - 18h00",,,"49.213442","5.64121","25 Rue des Ecoles 55400 Étain","0.94","55400","Étain","55181"
"55","Ligny-en-Barrois","12/14 Rue des Etats Unis ",,,"55500","LIGNY EN BARROIS","Collectivité","CIAS Bar le Duc Sud Meuse","9h00 – 12h00 – 13h30 – 16h30","9h00 – 12h00 – 13h30 – 16h30","9h00 – 12h00 – 13h30 – 16h30","9h00 – 12h00 – 13h30 – 16h30","9h00 – 12h00 – 13h30 – 16h30",,,"48.688032","5.322006","14 Rue des Etats Unis 55500 Ligny-en-Barrois","0.89","55500","Ligny-en-Barrois","55291"
"55","Stenay val Dunois","6 d Avenue de Verdun",,,"55700","STENAY","Collectivité","Codecom Pays de Stenay Val Dunois","8h00 – 12h00 -13h30 – 17h00","8h00 – 12h00  - 13h30 – 17h00","8h00 – 12h00  - 13h30 – 17h00","8h00 – 12h00  - 13h30 – 17h00","8h00 – 12h00  - 13h30 – 17h00",,,"49.489519","5.194254","6 d Avenue de Verdun 55700 Stenay","0.94","55700","Stenay","55502"
"56","Mairie de Guéméné-sur-Scorff","Place du Château",,,"56160","GUÉMÉNÉ-SUR-SCORFF",,,,,,,,,,"48.067192","-3.20801","Place du Chateau 56160 Guémené-sur-Scorff","0.94","56160","Guémené-sur-Scorff","56073"
"56","CCAS de Groix","place Joseph-Yvon",,,"56590","GROIX",,,,,,,,,,"47.63933","-3.444764","Rue Joseph Puillon 56590 Groix","0.56","56590","Groix","56069"
"57","Entrange ","22 Rue du Silo",,,"57330","ENTRANGE ","Collectivité","Communauté de Communes de Cattenom et Environs",,"9h-12h30/13h30-17h","9h-12h30/13h30-16h30","9h-12h30","9h-12h30","9h-12h30",,"49.415109","6.13249","22 Rue du Silo 57330 Entrange","0.94","57330","Entrange","57194"
"58","Espace France services de Varzy","7 rue Nicolas Colbert",,,"58210","VARZY","Association","Mairie de Donzy","9H-12H 13H30-17H30","13H30-17H30","9H-12H 13H30-17H30","13H30-17H30","9H-13h-14H30-17h30",,,"47.356581","3.385824","7 Rue Nicolas Colbert 58210 Varzy","0.94","58210","Varzy","58304"
"58","Espace France services de Donzy","1 place de la mairie",,,"58220","Donzy","Collectivité","Espace socioculturel du Val du Sauzay","8H30-12h-13h30-17h","8H30-12h-13h30-18h","8H30-12h-13h30-17h","8H30-12h-13h30-18h","8H30-17h",,,"47.373057","3.125918","1 Place de Larrey 58220 Donzy","0.61","58220","Donzy","58102"
"58","Espace France services de Fourchambault","Espace Marie-Curie BP 90202",,,"58642","Fourchambault","Association","Centre social de Fourchambault","8h30-12h/13h30-18h","8h30-12h/13h30-18h","8h30-12h/13h30-18h","8h30-12h/13h30-17h",,,,"47.927159","-1.303102","Espace Pierre et Marie Curie 35130 Arbrissel","0.32","35130","Arbrissel","35005"
"59","Bus itinérant de l’Avesnois","51 Rue Gustave Delory",,,"59000","LILLE","Collectivité",,"9H30 – 12H30 / 13H30 – 16H","9H30 – 12H30 / 13H30 – 16H","9H30 – 12H30 / 13H30 – 16H","9H30 – 12H30 / 13H30 – 16H","9H-13H",,"Oui","50.636068","3.005915","51 Rue Gustave Delory (Lomme) 59000 Lille","0.82","59000","Lille","59350"
"59","Espace France Services d’Hondschoote","1 Rue de Cassel",,,"59122","HONDSCHOOTE","Collectivité",,"9 h 12 h / 14 h 17 h ","9 h 12 h / 14 h 17 h ","9 h 12 h / 14 h 17 h ","9 h 12 h / 14 h 17 h ","9 h 13 h / 14 h 16 h ",,,"50.978506","2.579816","1 Rue de Cassel 59122 Hondschoote","0.95","59122","Hondschoote","59309"
"59","Espace France Services de Pecquencourt","cité Barrois - rue Castres","centre multimédia",,"59146","PECQUENCOURT","Collectivité",,"14h-18h","10h-12h/14h-18h","10h-12h/14h-18h","10h-12h  ","10h-12h/14h-18h",,,"48.694157","5.317963","Cite des Battants 55500 Ligny-en-Barrois","0.22","55500","Ligny-en-Barrois","55291"
"59","Espace France Services d’Anor ","9 Rue Georges Clémenceau",,,"59186","ANOR","La Poste",,"9h30-12h","9h - 12h / 13h30 – 16h","9h - 12h ","9h - 12h / 13h30 – 16h","9h - 12h / 13h30 – 16h","9h - 12h ",,"49.990917","4.098503","9 Rue Georges Clémenceau 59186 Anor","0.94","59186","Anor","59012"
"59","Espace France Services de Raimbeaucourt ","Place Charles de Gaulle","CCAS Lesecq Carpentier",,"59283","RAIMBEAUCOURT","Collectivité",,"8h30-11h30/13h30-16h30","8h30-11h30/13h30-16h30","8h30-11h30","8h30-11h30/13h30-16h30","8h30-11h30",,,"44.054213","5.047072","Place Charles de Gaulle 84200 Carpentras","0.49","84200","Carpentras","84031"
"59","Espace France Services du Cateau-Cambrésis","13 Place du Commandant Richez",,,"59360","LE CATEAU-CAMBRÉSIS","Collectivité",,"9 h 12 h / 14 h 17 h ","9 h 12 h / 14 h 17 h ","9 h-13 h / 14 h-16 h ","9 h 12 h / 14 h 17 h ","9 h 12 h / 14 h 17 h ",,,"50.105684","3.541175","13 Place du Commandant Richez 59360 Le Cateau-Cambrésis","0.95","59360","Le Cateau-Cambrésis","59136"
"59","Espace France Services de Bourbourg ","Avenue Francois Mitterrand","Espace Pierre de Coubertin ",,"59630","BOURBOURG","Association","centre socio-éducatif","8h30 -12h30","8h30 -13h00","8h30 -12h30","8h30 -12h30","8h30 -12h30","8h30 -12h30",,"50.944676","2.192959","Avenue Francois Mitterrand 59630 Bourbourg","0.59","59630","Bourbourg","59094"
"59","Espace France Services de Solesmes ","9 bis Rue Jules Guesde","« l’Etape »",,"59730","SOLESMES","Collectivité",,"8H30-12H","8H30-12H /13H30-17H",,"8H30-12H /13H30-17H","8H30-12H /13H30-16H30",,,"50.182569","3.492718","9 bis Rue Jules Guesde 59730 Solesmes","0.78","59730","Solesmes","59571"
"59","Espace France Services Bruay-sur-Escaut","6 rue de l’église",,,"59860","BRUAY-SUR-L'ESCAUT","Collectivité",,"9 h 12 h / 14 h 17 h ","9 h 12 h / 14 h 17 h ","9 h 13 h / 14 h 16 h ","9 h 12 h / 14 h 17 h ","9 h 12 h / 14 h 17 h ",,,"50.407833","3.557985","6 Rue de l'Eglise 59860 Bruay-sur-l'Escaut","0.95","59860","Bruay-sur-l'Escaut","59112"
"60","Espace France Services de Saint-Just en Chaussée","60 Rue de Paris",,,"60130","SAINT-JUST EN CHAUSSÉE","Collectivité","Conseil Départemental","14 h – 17 h","9h30 - 12h30 / 14h - 17h","9h30 - 12h30 / 14h - 17h","9h30 - 12h30 / 14h - 17h","9h30 - 12h30 / 14h - 17h"," ",,"49.504752","2.434864","60 Rue de Paris 60130 Saint-Just-en-Chaussée","0.95","60130","Saint-Just-en-Chaussée","60581"
"60","Espace France Services de Saint-Just en Chaussée","60 Rue de Paris",,,"60130","SAINT-JUST EN CHAUSSÉE","Collectivité","Conseil Départemental","14 h – 17 h","9h30 - 12h30 / 14h - 17h","9h30 - 12h30 / 14h - 17h","9h30 - 12h30 / 14h - 17h","9h30 - 12h30 / 14h - 17h",,,"49.504752","2.434864","60 Rue de Paris 60130 Saint-Just-en-Chaussée","0.95","60130","Saint-Just-en-Chaussée","60581"
"60","Espace France Services de Grandvilliers","32 Rue Frédéric Petit",,,"60210","GRANDVILLIERS","Association","Centre Social Rural","9 h -12h – 13 h 30 – 17 h 30","9 h -12h – 13 h 30 – 17 h 30","9 h -12h – 13 h 30 – 17 h 30","9 h -12h – 13 h 30 – 17 h 30","9 h -12h – 13 h 30 – 17 h 30",,,"49.666156","1.937855","32 Rue Frédéric Petit 60210 Grandvilliers","0.94","60210","Grandvilliers","60286"
"60","Espace France Services de Crévecoeur le Grand","24 Avenue du Château",,,"60360","CREVECOEUR-LE-GRAND","Collectivité","Conseil Départemental","14 h – 17 h","9h30 - 12h30 / 14h - 17h","9h30 - 12h30 / 14h - 17h","9h30 - 12h30 / 14h - 17h","9h30 - 12h30 / 14h - 17h",,,"49.607923","2.080593","24 Avenue du Château 60360 Crèvecœur-le-Grand","0.94","60360","Crèvecœur-le-Grand","60178"
"60","Espace France Services de Ressons-sur-Matz","91 Rue de Compiegne",,,"60490","RESSONS-SUR-MATZ","Collectivité","Conseil Départemental","14 h – 17 h","9h30 - 12h30 / 14h - 17h","9h30 - 12h30 / 14h - 17h","9h30 - 12h30 / 14h - 17h","9h30 - 12h30 / 14h - 17h",,,"49.537891","2.744749","91 Rue de Compiegne 60490 Ressons-sur-Matz","0.94","60490","Ressons-sur-Matz","60533"
"60","Espace France Services de Betz","1 Rue de la Fraternite",,,"60620","BETZ","Association","Centre Social Rural","13 h 30 – 17 h","9h – 12 h /13 h 30 – 17 h","9h – 12 h /13 h 30 – 16 h","9h – 12 h /13 h 30 – 17 h","9h – 12 h /13 h 30 – 16 h",,,"49.159855","2.95234","1 Rue de la Fraternite 60620 Betz","0.94","60620","Betz","60069"
"60","Espace France Services de Le Coudray Saint-Germer","4 Rue des Ecoles",,,"60850","LE COUDRAY SAINT-GERMER","Association","Centre Social Rural","/","9 h -12h – 13 h 30 – 17 h 30","9 h -12h – 13 h 30 – 19 h 30","9 h -12h – 13 h 30 – 17 h 30","9 h -12h – 13 h 30 – 19 h 30","9 h – 12 h",,"49.413446","1.841847","4 Rue des Ecoles 60850 Le Coudray-Saint-Germer","0.94","60850","Le Coudray-Saint-Germer","60164"
"61","Espace France Services d'Alençon - Perseigne ","28 Place de la Paix",,,"61000","ALENÇON",,,,,,,,,,"48.415224","0.094454","Place de la Paix 61000 Alençon","0.87","61000","Alençon","61001"
"61","Réseau Communauté de communes Coeur du Perche - Mairie de Rémalard en Perche","23 Rue de l'Eglise",,,"61110","RÉMALARD EN PERCHE",,,,,,,,,,"48.429186","0.774625","23 Rue de l'Eglise 61110 Rémalard en Perche","0.94","61110","Rémalard en Perche","61345"
"61","Espace France Services de L'Aigle","Rue de la Merillière",,,"61300","L’AIGLE",,,,,,,,,,"48.761952","0.619649","Rue de la Merillière 61300 L'Aigle","0.95","61300","L'Aigle","61214"
"62","Maison de la Morinie","6 place de la morinie",,,"62129","THÉROUANNE","Collectivité","Communauté d’agglomération du pays de saint-omer","8h30-12h15/13h30-17h","8h30-12h15/13h30-17h","8h30-12h15/13h30-17h","8h30-12h15/13h30-17h","8h30-12h15/13h30-17h","/",,"50.638303","2.256897","6 Place de la Morinie 62129 Thérouanne","0.94","62129","Thérouanne","62811"
"62","Maison Intercommunale Pour Tous","38, rue des Potiers",,,"62240","DESVRES","Collectivité","Communauté de communes de Desvres-Samer","9h-12h30/14h30-17h30","9h-12h30/14h30-17h30","9h-12h30/14h30-17h","9h-12h30/14h30-17h30","9h-12h30/14h30-17h30","9h-12h30 – 1 samedi sur 2","Oui","50.66755","1.837535","38 Rue des Potiers 62240 Desvres","0.95","62240","Desvres","62268"
"62","PIMMS de Lens","49 place du Général de Gaulle",,,"62300","Lens","PIMMS","PIMMS ARTOIS-GOHELLE","13h30-17h15","9h-12h/13h30-17h15","9h-18h","9h-12h/13h30-17h15","9h-12h/13h30-17h15","/",,"50.426606","2.829288","49 Pl du General Charles de Gaulle 62300 Lens","0.71","62300","Lens","62498"
"62","Espace France Services Pays d'opale","9 Avenue de la Libération",,,"62340","GUINES","Collectivité","Communauté de communes du Pays d’Opale","8h-12h30/13h30-17h","8h-12h30/13h30-17h","8h-12h30/13h30-17h","8h-12h30/13h30-17h","8h-12h30/13h30-17h","/",,"50.86622","1.860873","9 Avenue de la Libération 62340 Guînes","0.95","62340","Guînes","62397"
"62","Espace France Services LUMBRES","1 chemin du Pressart",,,"62380","LUMBRES","Collectivité","Communauté de communes du Pays de Lumbres","8h30-12h/13h30-17h","8h30-12h/13h30-17h","8h30-12h/13h30-17h","8h30-12h/13h30-17h","8h30-12h/13h30-17h","/",,"50.705925","2.11089","1 Chemin du Pressart 62380 Lumbres","0.94","62380","Lumbres","62534"
"62","Maison Service public +","Place du 4 Septembre",,,"62400","BETHUNE","Collectivité","Ville de Béthune","8h30-12h/13h30-17h","8h30-12h/13h30-17h","8h30-12h/13h30-17h","8h30-12h/13h30-17h","8h30-12h/13h30-17h","/",,"50.53036","2.638323","Place du 4 Septembre 62400 Béthune","0.95","62400","Béthune","62119"
"62","PIMMS Itinérant","100 avenue de Londres",,,"62411","Béthune","PIMMS","PIMMS ARTOIS-GOHELLE","9h-16h30 selon planning permanences","9h-16h30 selon planning permanences","9h-16h30 selon planning permanences","9h-16h30 selon planning permanences","9h-16h30 selon planning permanences","/","Oui","50.516311","2.626759","100 Avenue de Londres 62400 Béthune","0.81","62400","Béthune","62119"
"62","PIMMS de Libercourt","place de la gare",,,"62820","LIBERCOURT","PIMMS","PIMMS ARTOIS-GOHELLE","13h45-18h30","9h-12h/13h45-18h30","9h-12h/13h45-17h30","10h-18h30","9h-12h/13h45-17h30","/",,"50.473636","3.000173","Rue de la Gare 62820 Libercourt","0.79","62820","Libercourt","62907"
"62","Beaurainville","17 rue de la poste",,,"62990","BEAURAINVILLE","La Poste",,,,,,,,,"50.423572","1.901385","17 Rue de la Poste 62990 Beaurainville","0.94","62990","Beaurainville","62100"
"63","ESPACE FRANCE SERVICES de Pontgibaud","5 rue des frères Gnestier",,,"63230","Pontgibaud","Collectivité","CC Chavanon Combrailles et Volcans","9h – 12h30 / 14h – 17h","9h – 12h30 / 14h – 17h","9h – 12h30 / 14h – 17h","9h – 12h30 / 14h – 17h","9h – 12h30 / 14h – 16h",,,"45.833365","2.852967","5 Rue du Frére Genestier 63230 Pontgibaud","0.72","63230","Pontgibaud","63285"
"63","ESPACE FRANCE SERVICES DU Mont Dore relais Sancy","6 avenue du Général Leclerc",,,"63240","LE MONT DORE","Collectivité","CC du Massif du Sancy","8h30-12h30 / 13h30 8 17h30","8h30-12h30 / 13h30 8 17h30","8h30-12h30 / 13h30 8 17h30","8h30-12h30 / 13h30 8 17h30",,,,"45.57527","2.810293","6 Avenue du General Leclerc 63240 Mont-Dore","0.88","63240","Mont-Dore","63236"
"63","ESPACE FRANCE SERVICES de Pontaumur","6 avenue des Marroniers",,,"63380","PONTAUMUR","Collectivité","CC Chavanon Combrailles et Volcans","9h – 12h30 / 14h – 17h","9h – 12h30 / 14h – 17h","9h – 12h30 / 14h – 17h","9h – 12h30 / 14h – 17h","9h – 12h30 / 14h – 16h",,,"45.868269","2.675252","6 Avenue du Marronnier 63380 Pontaumur","0.74","63380","Pontaumur","63283"
"63","Maison de services de Saint Gervais","RUE FONTAINE DE LA VILLE",,,"63390","ST GERVAIS D’AUVERGNE","Collectivité","mairie de St Gervais d’Auvergne","9h – 12h30 / 14h – 17h","9h – 12h30 / 14h – 17h","9h – 12h30 / 14h – 17h","9h – 12h30 / 14h – 17h","9h – 12h30 / 14h – 17h","9h-12h00",,"46.029308","2.820765","Rue Fontaine de la Ville 63390 Saint-Gervais-d'Auvergne","0.86","63390","Saint-Gervais-d'Auvergne","63354"
"63","ESPACE FRANCE SERVICES de Viverols","3 place de l’église",,,"63600","VIVEROLS","Collectivité","CC Ambert Livradois Forez","9h - 12h / 14h – 17h","9h - 12h / 14h – 17h","9h - 12h / 14h – 17h","9h - 12h / 14h – 17h","9h - 12h / 14h – 16h30",,,"45.433359","3.883726","3 Place de l'Eglise 63840 Viverols","0.78","63840","Viverols","63465"
"63","Espace France Services de Giat","1 place du champs de foire","Bâtiment de la Mairie",,"63620","GIAT","Collectivité","CC Chavanon Combrailles et Volcans","9h - 12h ","9h - 12h / 14h – 17h","9h - 12h / 14h – 17h","9h - 12h ","9h - 12h / 14h – 17h",,,"45.800823","2.469049","Place du Champ de Foire 63620 Giat","0.52","63620","Giat","63165"
"63","ESPACE FRANCE SERVICES de Bourg Lastic","4 route de Tulle",,,"63760","Bourg Lastic","Collectivité","CC Chavanon Combrailles et Volcans","9h – 12h30 / 14h – 17h","9h – 12h30 / 14h – 17h","9h – 12h30 / 14h – 17h","9h – 12h30 / 14h – 17h","9h – 12h30 / 14h – 16h",,,"45.648029","2.557594","4 Route de Tulle 63760 Bourg-Lastic","0.94","63760","Bourg-Lastic","63048"
